{
"type": "FeatureCollection",
"name": "transport_stops",
"crs": { "type": "name", "properties": { "name": "urn:ogc:def:crs:OGC::CRS84" } },
"features": [
{ "type": "Feature", "properties": { "fid": 1, "osm_id": "32553623", "code": 5603, "fclass": "tram_stop", "name": "Southwest Market & Park" }, "geometry": { "type": "Point", "coordinates": [ -122.6839292, 45.5136663 ] } },
{ "type": "Feature", "properties": { "fid": 2, "osm_id": "33438407", "code": 5601, "fclass": "railway_station", "name": "Dee" }, "geometry": { "type": "Point", "coordinates": [ -121.6271006, 45.588788 ] } },
{ "type": "Feature", "properties": { "fid": 3, "osm_id": "35400275", "code": 5621, "fclass": "bus_stop", "name": "Stewart and Columbus" }, "geometry": { "type": "Point", "coordinates": [ -122.889353, 42.31288 ] } },
{ "type": "Feature", "properties": { "fid": 4, "osm_id": "35408114", "code": 5621, "fclass": "bus_stop", "name": "Shop'n Kart" }, "geometry": { "type": "Point", "coordinates": [ -122.6732728, 42.1853656 ] } },
{ "type": "Feature", "properties": { "fid": 5, "osm_id": "35412901", "code": 5621, "fclass": "bus_stop", "name": "Chevron" }, "geometry": { "type": "Point", "coordinates": [ -122.6637537, 42.1855719 ] } },
{ "type": "Feature", "properties": { "fid": 6, "osm_id": "35420346", "code": 5621, "fclass": "bus_stop", "name": "N 5th St - South of Shafer Ln" }, "geometry": { "type": "Point", "coordinates": [ -122.9594, 42.319355 ] } },
{ "type": "Feature", "properties": { "fid": 7, "osm_id": "35424535", "code": 5621, "fclass": "bus_stop", "name": "N Ross and W Main - Albertsons" }, "geometry": { "type": "Point", "coordinates": [ -122.8992938, 42.3247078 ] } },
{ "type": "Feature", "properties": { "fid": 8, "osm_id": "35434797", "code": 5621, "fclass": "bus_stop", "name": "Shasta and Alta Vista" }, "geometry": { "type": "Point", "coordinates": [ -122.8169896, 42.4585913 ] } },
{ "type": "Feature", "properties": { "fid": 9, "osm_id": "35448764", "code": 5621, "fclass": "bus_stop", "name": "Hannon Road - Eagle Point Walmart" }, "geometry": { "type": "Point", "coordinates": [ -122.8152927, 42.469682 ] } },
{ "type": "Feature", "properties": { "fid": 10, "osm_id": "35460318", "code": 5621, "fclass": "bus_stop", "name": "Hersey and Ann" }, "geometry": { "type": "Point", "coordinates": [ -122.7036267, 42.2013768 ] } },
{ "type": "Feature", "properties": { "fid": 11, "osm_id": "35461203", "code": 5621, "fclass": "bus_stop", "name": "N Royal and Saint Clair Way" }, "geometry": { "type": "Point", "coordinates": [ -122.7935891, 42.4814721 ] } },
{ "type": "Feature", "properties": { "fid": 12, "osm_id": "35465787", "code": 5621, "fclass": "bus_stop", "name": "Spring St and Crater Lake Ave" }, "geometry": { "type": "Point", "coordinates": [ -122.8616864, 42.3382502 ] } },
{ "type": "Feature", "properties": { "fid": 13, "osm_id": "35482328", "code": 5621, "fclass": "bus_stop", "name": "Poplar Dr - at Colonial Park Estates" }, "geometry": { "type": "Point", "coordinates": [ -122.8695048, 42.3500166 ] } },
{ "type": "Feature", "properties": { "fid": 14, "osm_id": "35508270", "code": 5621, "fclass": "bus_stop", "name": "N 2nd St - South of Hazel St" }, "geometry": { "type": "Point", "coordinates": [ -122.9195744, 42.3783942 ] } },
{ "type": "Feature", "properties": { "fid": 15, "osm_id": "35535045", "code": 5621, "fclass": "bus_stop", "name": "Talent Ave - South of Colver Rd" }, "geometry": { "type": "Point", "coordinates": [ -122.7891722, 42.2481453 ] } },
{ "type": "Feature", "properties": { "fid": 16, "osm_id": "35544788", "code": 5621, "fclass": "bus_stop", "name": "Barnett Road - Brookdale Senior Living" }, "geometry": { "type": "Point", "coordinates": [ -122.8245002, 42.3173532 ] } },
{ "type": "Feature", "properties": { "fid": 17, "osm_id": "35545332", "code": 5621, "fclass": "bus_stop", "name": "Stewart Ave - East of S. Pacific Hwy" }, "geometry": { "type": "Point", "coordinates": [ -122.859326, 42.3129567 ] } },
{ "type": "Feature", "properties": { "fid": 18, "osm_id": "35546791", "code": 5621, "fclass": "bus_stop", "name": "120 S Columbus Ave" }, "geometry": { "type": "Point", "coordinates": [ -122.8901496, 42.3201478 ] } },
{ "type": "Feature", "properties": { "fid": 19, "osm_id": "35551653", "code": 5621, "fclass": "bus_stop", "name": "N 10th St - North of Maple St" }, "geometry": { "type": "Point", "coordinates": [ -122.9130514, 42.381514 ] } },
{ "type": "Feature", "properties": { "fid": 20, "osm_id": "35556812", "code": 5621, "fclass": "bus_stop", "name": "W Main St - East of Hwy 238" }, "geometry": { "type": "Point", "coordinates": [ -122.9423581, 42.3248505 ] } },
{ "type": "Feature", "properties": { "fid": 21, "osm_id": "35558432", "code": 5621, "fclass": "bus_stop", "name": "Black Oak and Siskiyou" }, "geometry": { "type": "Point", "coordinates": [ -122.8356902, 42.3189599 ] } },
{ "type": "Feature", "properties": { "fid": 22, "osm_id": "35594268", "code": 5621, "fclass": "bus_stop", "name": "O'Hare Parkway - West of Heathrow Way" }, "geometry": { "type": "Point", "coordinates": [ -122.8787387, 42.3659986 ] } },
{ "type": "Feature", "properties": { "fid": 23, "osm_id": "35612558", "code": 5621, "fclass": "bus_stop", "name": "Crystal and Teakwood" }, "geometry": { "type": "Point", "coordinates": [ -122.7992172, 42.480115 ] } },
{ "type": "Feature", "properties": { "fid": 24, "osm_id": "35614877", "code": 5621, "fclass": "bus_stop", "name": "Talent and Main" }, "geometry": { "type": "Point", "coordinates": [ -122.7875183, 42.2456931 ] } },
{ "type": "Feature", "properties": { "fid": 25, "osm_id": "35626543", "code": 5621, "fclass": "bus_stop", "name": "S Pacific Hwy - South of Rose Street" }, "geometry": { "type": "Point", "coordinates": [ -122.8246758, 42.2816309 ] } },
{ "type": "Feature", "properties": { "fid": 26, "osm_id": "35646812", "code": 5621, "fclass": "bus_stop", "name": "Juanipero and Olympic" }, "geometry": { "type": "Point", "coordinates": [ -122.8246864, 42.3097435 ] } },
{ "type": "Feature", "properties": { "fid": 27, "osm_id": "35653711", "code": 5621, "fclass": "bus_stop", "name": "Front Street Station" }, "geometry": { "type": "Point", "coordinates": [ -122.8715318, 42.3244687 ] } },
{ "type": "Feature", "properties": { "fid": 28, "osm_id": "35656636", "code": 5621, "fclass": "bus_stop", "name": "S Pacific Hwy - North of Motorcycle Ln" }, "geometry": { "type": "Point", "coordinates": [ -122.8330547, 42.2874409 ] } },
{ "type": "Feature", "properties": { "fid": 29, "osm_id": "35657457", "code": 5621, "fclass": "bus_stop", "name": "Dakota Ave - East of Benson St" }, "geometry": { "type": "Point", "coordinates": [ -122.8887742, 42.316537 ] } },
{ "type": "Feature", "properties": { "fid": 30, "osm_id": "37739709", "code": 5603, "fclass": "tram_stop", "name": "Bay Street" }, "geometry": { "type": "Point", "coordinates": [ -123.8494519, 46.1901336 ] } },
{ "type": "Feature", "properties": { "fid": 31, "osm_id": "37739799", "code": 5603, "fclass": "tram_stop", "name": "17th Street" }, "geometry": { "type": "Point", "coordinates": [ -123.824279, 46.1895791 ] } },
{ "type": "Feature", "properties": { "fid": 32, "osm_id": "37739866", "code": 5603, "fclass": "tram_stop", "name": "35th Street" }, "geometry": { "type": "Point", "coordinates": [ -123.80506, 46.1937415 ] } },
{ "type": "Feature", "properties": { "fid": 33, "osm_id": "37739877", "code": 5603, "fclass": "tram_stop", "name": "39th Street" }, "geometry": { "type": "Point", "coordinates": [ -123.7988325, 46.1951123 ] } },
{ "type": "Feature", "properties": { "fid": 34, "osm_id": "37840806", "code": 5603, "fclass": "tram_stop", "name": "20th Street" }, "geometry": { "type": "Point", "coordinates": [ -123.8198343, 46.1901645 ] } },
{ "type": "Feature", "properties": { "fid": 35, "osm_id": "37870652", "code": 5603, "fclass": "tram_stop", "name": "Astoria Basin Street" }, "geometry": { "type": "Point", "coordinates": [ -123.8534202, 46.1883187 ] } },
{ "type": "Feature", "properties": { "fid": 36, "osm_id": "38669552", "code": 5661, "fclass": "ferry_terminal", "name": "Buena Vista Ferry" }, "geometry": { "type": "Point", "coordinates": [ -123.1472936, 44.7701615 ] } },
{ "type": "Feature", "properties": { "fid": 37, "osm_id": "38799222", "code": 5661, "fclass": "ferry_terminal", "name": "Wheatland Ferry (West)" }, "geometry": { "type": "Point", "coordinates": [ -123.046169, 45.0905692 ] } },
{ "type": "Feature", "properties": { "fid": 38, "osm_id": "39999535", "code": 5621, "fclass": "bus_stop", "name": "" }, "geometry": { "type": "Point", "coordinates": [ -123.902569, 44.7252788 ] } },
{ "type": "Feature", "properties": { "fid": 39, "osm_id": "40288809", "code": 5661, "fclass": "ferry_terminal", "name": "Wheatland Ferry (East)" }, "geometry": { "type": "Point", "coordinates": [ -123.0444191, 45.0899925 ] } },
{ "type": "Feature", "properties": { "fid": 40, "osm_id": "40389847", "code": 5661, "fclass": "ferry_terminal", "name": "Buena Vista Ferry" }, "geometry": { "type": "Point", "coordinates": [ -123.144738, 44.769662 ] } },
{ "type": "Feature", "properties": { "fid": 41, "osm_id": "40425091", "code": 5603, "fclass": "tram_stop", "name": "South Moody & Meade" }, "geometry": { "type": "Point", "coordinates": [ -122.6727618, 45.5031137 ] } },
{ "type": "Feature", "properties": { "fid": 42, "osm_id": "40562315", "code": 5621, "fclass": "bus_stop", "name": "Northeast Vancouver Way & Freightliner" }, "geometry": { "type": "Point", "coordinates": [ -122.663684, 45.592436 ] } },
{ "type": "Feature", "properties": { "fid": 43, "osm_id": "286540812", "code": 5621, "fclass": "bus_stop", "name": "Shute Road & Dawson Creek Drive" }, "geometry": { "type": "Point", "coordinates": [ -122.9262872, 45.5444055 ] } },
{ "type": "Feature", "properties": { "fid": 44, "osm_id": "297852376", "code": 5603, "fclass": "tram_stop", "name": "Southwest 11th & Alder" }, "geometry": { "type": "Point", "coordinates": [ -122.68275, 45.5210792 ] } },
{ "type": "Feature", "properties": { "fid": 45, "osm_id": "297852393", "code": 5603, "fclass": "tram_stop", "name": "Northwest 23rd & Marshall" }, "geometry": { "type": "Point", "coordinates": [ -122.6986695, 45.5306216 ] } },
{ "type": "Feature", "properties": { "fid": 46, "osm_id": "305836592", "code": 5621, "fclass": "bus_stop", "name": "Southeast Harold & 97th" }, "geometry": { "type": "Point", "coordinates": [ -122.563293, 45.4827509 ] } },
{ "type": "Feature", "properties": { "fid": 47, "osm_id": "305836595", "code": 5621, "fclass": "bus_stop", "name": "Southeast Harold & 97th" }, "geometry": { "type": "Point", "coordinates": [ -122.5635416, 45.4826136 ] } },
{ "type": "Feature", "properties": { "fid": 48, "osm_id": "309718170", "code": 5651, "fclass": "airport", "name": "Prineville Airport" }, "geometry": { "type": "Point", "coordinates": [ -120.9035, 44.2869 ] } },
{ "type": "Feature", "properties": { "fid": 49, "osm_id": "309719597", "code": 5651, "fclass": "airport", "name": "Dry Creek Airpark" }, "geometry": { "type": "Point", "coordinates": [ -120.8229764, 44.1946662 ] } },
{ "type": "Feature", "properties": { "fid": 50, "osm_id": "309741681", "code": 5651, "fclass": "airport", "name": "Burns Municipal Airport" }, "geometry": { "type": "Point", "coordinates": [ -118.9554, 43.5914 ] } },
{ "type": "Feature", "properties": { "fid": 51, "osm_id": "309760119", "code": 5651, "fclass": "airport", "name": "Ponderosa Ranch Airport" }, "geometry": { "type": "Point", "coordinates": [ -118.9327205, 44.025708 ] } },
{ "type": "Feature", "properties": { "fid": 52, "osm_id": "320097133", "code": 5603, "fclass": "tram_stop", "name": "OHSU Commons" }, "geometry": { "type": "Point", "coordinates": [ -122.6707251, 45.4989149 ] } },
{ "type": "Feature", "properties": { "fid": 53, "osm_id": "323588258", "code": 5621, "fclass": "bus_stop", "name": "Southwest Washington & 9th" }, "geometry": { "type": "Point", "coordinates": [ -122.6808653, 45.5212649 ] } },
{ "type": "Feature", "properties": { "fid": 54, "osm_id": "324193672", "code": 5621, "fclass": "bus_stop", "name": "Southeast Division & 20th" }, "geometry": { "type": "Point", "coordinates": [ -122.646017, 45.5047732 ] } },
{ "type": "Feature", "properties": { "fid": 55, "osm_id": "324193675", "code": 5621, "fclass": "bus_stop", "name": "Northeast Multnomah & 11th" }, "geometry": { "type": "Point", "coordinates": [ -122.6539998, 45.5314339 ] } },
{ "type": "Feature", "properties": { "fid": 56, "osm_id": "324193682", "code": 5621, "fclass": "bus_stop", "name": "Southeast Division & 26th" }, "geometry": { "type": "Point", "coordinates": [ -122.6392011, 45.5047748 ] } },
{ "type": "Feature", "properties": { "fid": 57, "osm_id": "324193684", "code": 5621, "fclass": "bus_stop", "name": "Northeast 9th & Halsey" }, "geometry": { "type": "Point", "coordinates": [ -122.6564672, 45.5335283 ] } },
{ "type": "Feature", "properties": { "fid": 58, "osm_id": "324193694", "code": 5621, "fclass": "bus_stop", "name": "Northeast Multnomah & 9th" }, "geometry": { "type": "Point", "coordinates": [ -122.6568197, 45.5314018 ] } },
{ "type": "Feature", "properties": { "fid": 59, "osm_id": "333555279", "code": 5621, "fclass": "bus_stop", "name": "" }, "geometry": { "type": "Point", "coordinates": [ -122.97625, 44.9800522 ] } },
{ "type": "Feature", "properties": { "fid": 60, "osm_id": "334135957", "code": 5661, "fclass": "ferry_terminal", "name": "North Canby Ferry" }, "geometry": { "type": "Point", "coordinates": [ -122.692863, 45.3010409 ] } },
{ "type": "Feature", "properties": { "fid": 61, "osm_id": "334136088", "code": 5661, "fclass": "ferry_terminal", "name": "South Canby Ferry" }, "geometry": { "type": "Point", "coordinates": [ -122.692769, 45.2990052 ] } },
{ "type": "Feature", "properties": { "fid": 62, "osm_id": "338251071", "code": 5621, "fclass": "bus_stop", "name": "State & 24th" }, "geometry": { "type": "Point", "coordinates": [ -123.0113923, 44.9328843 ] } },
{ "type": "Feature", "properties": { "fid": 63, "osm_id": "338251075", "code": 5621, "fclass": "bus_stop", "name": "State & 24th" }, "geometry": { "type": "Point", "coordinates": [ -123.0121162, 44.9330855 ] } },
{ "type": "Feature", "properties": { "fid": 64, "osm_id": "340034173", "code": 5621, "fclass": "bus_stop", "name": "" }, "geometry": { "type": "Point", "coordinates": [ -123.9055155, 44.7253275 ] } },
{ "type": "Feature", "properties": { "fid": 65, "osm_id": "346086387", "code": 5621, "fclass": "bus_stop", "name": "Trade & Church" }, "geometry": { "type": "Point", "coordinates": [ -123.0369001, 44.9372241 ] } },
{ "type": "Feature", "properties": { "fid": 66, "osm_id": "348181697", "code": 5622, "fclass": "bus_station", "name": "SMART Central at Wilsonville Station" }, "geometry": { "type": "Point", "coordinates": [ -122.775628, 45.3108622 ] } },
{ "type": "Feature", "properties": { "fid": 67, "osm_id": "365796262", "code": 5621, "fclass": "bus_stop", "name": "North Lombard Transit Center" }, "geometry": { "type": "Point", "coordinates": [ -122.6826722, 45.5772479 ] } },
{ "type": "Feature", "properties": { "fid": 68, "osm_id": "369012737", "code": 5651, "fclass": "airport", "name": "Sasser Landing Strip" }, "geometry": { "type": "Point", "coordinates": [ -117.5276866, 45.5507002 ] } },
{ "type": "Feature", "properties": { "fid": 69, "osm_id": "369012757", "code": 5651, "fclass": "airport", "name": "Fall River Airfield" }, "geometry": { "type": "Point", "coordinates": [ -121.5686393, 43.8040075 ] } },
{ "type": "Feature", "properties": { "fid": 70, "osm_id": "369013797", "code": 5651, "fclass": "airport", "name": "West Buttercreek Airport" }, "geometry": { "type": "Point", "coordinates": [ -119.3862259, 45.6658532 ] } },
{ "type": "Feature", "properties": { "fid": 71, "osm_id": "369013876", "code": 5651, "fclass": "airport", "name": "Country Squire Airpark" }, "geometry": { "type": "Point", "coordinates": [ -122.2681, 45.3543 ] } },
{ "type": "Feature", "properties": { "fid": 72, "osm_id": "369013922", "code": 5651, "fclass": "airport", "name": "Arlington Municipal Airport" }, "geometry": { "type": "Point", "coordinates": [ -120.1773543, 45.7202882 ] } },
{ "type": "Feature", "properties": { "fid": 73, "osm_id": "369013924", "code": 5651, "fclass": "airport", "name": "Ajax Airstrip" }, "geometry": { "type": "Point", "coordinates": [ -120.46799, 45.3814767 ] } },
{ "type": "Feature", "properties": { "fid": 74, "osm_id": "369013935", "code": 5655, "fclass": "helipad", "name": "Hessel Tractor Heliport" }, "geometry": { "type": "Point", "coordinates": [ -122.6539853, 45.5887287 ] } },
{ "type": "Feature", "properties": { "fid": 75, "osm_id": "369013952", "code": 5655, "fclass": "helipad", "name": "PGE Service Center Heliport" }, "geometry": { "type": "Point", "coordinates": [ -122.6474101, 45.4958173 ] } },
{ "type": "Feature", "properties": { "fid": 76, "osm_id": "369013963", "code": 5651, "fclass": "airport", "name": "Chehalem Airpark" }, "geometry": { "type": "Point", "coordinates": [ -123.0547, 45.3241 ] } },
{ "type": "Feature", "properties": { "fid": 77, "osm_id": "369013972", "code": 5651, "fclass": "airport", "name": "Cline Falls Air Park" }, "geometry": { "type": "Point", "coordinates": [ -121.2699875, 44.2827883 ] } },
{ "type": "Feature", "properties": { "fid": 78, "osm_id": "369013974", "code": 5651, "fclass": "airport", "name": "Compressor Station Number 10 Airstrip" }, "geometry": { "type": "Point", "coordinates": [ -120.6137066, 45.129496 ] } },
{ "type": "Feature", "properties": { "fid": 79, "osm_id": "369013998", "code": 5651, "fclass": "airport", "name": "Malin Airport" }, "geometry": { "type": "Point", "coordinates": [ -121.3963661, 42.0003597 ] } },
{ "type": "Feature", "properties": { "fid": 80, "osm_id": "369014007", "code": 5651, "fclass": "airport", "name": "Long Ranch Airport" }, "geometry": { "type": "Point", "coordinates": [ -121.7037386, 42.0190874 ] } },
{ "type": "Feature", "properties": { "fid": 81, "osm_id": "369014011", "code": 5651, "fclass": "airport", "name": "Lexington Airport" }, "geometry": { "type": "Point", "coordinates": [ -119.6893, 45.4536 ] } },
{ "type": "Feature", "properties": { "fid": 82, "osm_id": "369014015", "code": 5651, "fclass": "airport", "name": "Lebanon State Airport" }, "geometry": { "type": "Point", "coordinates": [ -122.9292, 44.5297 ] } },
{ "type": "Feature", "properties": { "fid": 83, "osm_id": "369014019", "code": 5651, "fclass": "airport", "name": "Barton Lake Ranch Airstrip" }, "geometry": { "type": "Point", "coordinates": [ -118.6745213, 43.1283329 ] } },
{ "type": "Feature", "properties": { "fid": 84, "osm_id": "369014039", "code": 5651, "fclass": "airport", "name": "Boulder Park Resort Airstrip" }, "geometry": { "type": "Point", "coordinates": [ -117.4141972, 45.0645471 ] } },
{ "type": "Feature", "properties": { "fid": 85, "osm_id": "369014041", "code": 5651, "fclass": "airport", "name": "Brothers Landing Strip" }, "geometry": { "type": "Point", "coordinates": [ -120.6140526, 43.8174979 ] } },
{ "type": "Feature", "properties": { "fid": 86, "osm_id": "369014044", "code": 5651, "fclass": "airport", "name": "Boardman Airport" }, "geometry": { "type": "Point", "coordinates": [ -119.816213, 45.8155602 ] } },
{ "type": "Feature", "properties": { "fid": 87, "osm_id": "369014060", "code": 5651, "fclass": "airport", "name": "Muddy Creek Airstrip" }, "geometry": { "type": "Point", "coordinates": [ -118.0125476, 44.9397342 ] } },
{ "type": "Feature", "properties": { "fid": 88, "osm_id": "369014094", "code": 5651, "fclass": "airport", "name": "McKenzie Bridge State Airport" }, "geometry": { "type": "Point", "coordinates": [ -122.0870012, 44.1814516 ] } },
{ "type": "Feature", "properties": { "fid": 89, "osm_id": "369014240", "code": 5651, "fclass": "airport", "name": "Owyhee Reservoir State Airport" }, "geometry": { "type": "Point", "coordinates": [ -117.3456581, 43.4254258 ] } },
{ "type": "Feature", "properties": { "fid": 90, "osm_id": "369014253", "code": 5651, "fclass": "airport", "name": "Juntura Airstrip" }, "geometry": { "type": "Point", "coordinates": [ -118.0690594, 43.737725 ] } },
{ "type": "Feature", "properties": { "fid": 91, "osm_id": "369014263", "code": 5651, "fclass": "airport", "name": "Juniper Air Park" }, "geometry": { "type": "Point", "coordinates": [ -121.1181174, 44.034125 ] } },
{ "type": "Feature", "properties": { "fid": 92, "osm_id": "369014266", "code": 5651, "fclass": "airport", "name": "Johnson Airstrip" }, "geometry": { "type": "Point", "coordinates": [ -120.2178141, 45.2665185 ] } },
{ "type": "Feature", "properties": { "fid": 93, "osm_id": "369014268", "code": 5651, "fclass": "airport", "name": "Jensens Strip" }, "geometry": { "type": "Point", "coordinates": [ -117.9579955, 44.912367 ] } },
{ "type": "Feature", "properties": { "fid": 94, "osm_id": "369014270", "code": 5651, "fclass": "airport", "name": "Kinzua General Aviation Recreational Airport" }, "geometry": { "type": "Point", "coordinates": [ -120.0530207, 44.9992262 ] } },
{ "type": "Feature", "properties": { "fid": 95, "osm_id": "369014277", "code": 5651, "fclass": "airport", "name": "Kings Airstrip" }, "geometry": { "type": "Point", "coordinates": [ -118.4477471, 45.9337454 ] } },
{ "type": "Feature", "properties": { "fid": 96, "osm_id": "369014309", "code": 5651, "fclass": "airport", "name": "Stark's Twin Oaks Airpark" }, "geometry": { "type": "Point", "coordinates": [ -122.9415879, 45.4282698 ] } },
{ "type": "Feature", "properties": { "fid": 97, "osm_id": "369014332", "code": 5651, "fclass": "airport", "name": "Simtag Farms Airstrip" }, "geometry": { "type": "Point", "coordinates": [ -119.945083, 45.7525966 ] } },
{ "type": "Feature", "properties": { "fid": 98, "osm_id": "369014337", "code": 5651, "fclass": "airport", "name": "Snyder Ranch Airstrip" }, "geometry": { "type": "Point", "coordinates": [ -120.2169783, 45.1942965 ] } },
{ "type": "Feature", "properties": { "fid": 99, "osm_id": "369014363", "code": 5651, "fclass": "airport", "name": "Santiam Junction State Airport" }, "geometry": { "type": "Point", "coordinates": [ -121.9421176, 44.4348232 ] } },
{ "type": "Feature", "properties": { "fid": 100, "osm_id": "369014396", "code": 5651, "fclass": "airport", "name": "Putnams Airfield" }, "geometry": { "type": "Point", "coordinates": [ -120.183083, 45.0609643 ] } },
{ "type": "Feature", "properties": { "fid": 101, "osm_id": "369014405", "code": 5651, "fclass": "airport", "name": "Roaring Springs Ranch Airstrip" }, "geometry": { "type": "Point", "coordinates": [ -118.9900659, 42.6547197 ] } },
{ "type": "Feature", "properties": { "fid": 102, "osm_id": "369014441", "code": 5651, "fclass": "airport", "name": "Rome State Airport" }, "geometry": { "type": "Point", "coordinates": [ -117.8850369, 42.578181 ] } },
{ "type": "Feature", "properties": { "fid": 103, "osm_id": "369014559", "code": 5651, "fclass": "airport", "name": "Valley View Airport" }, "geometry": { "type": "Point", "coordinates": [ -122.318909, 45.3082037 ] } },
{ "type": "Feature", "properties": { "fid": 104, "osm_id": "369014599", "code": 5651, "fclass": "airport", "name": "Decker Ranch Airstrip" }, "geometry": { "type": "Point", "coordinates": [ -120.6678246, 45.166515 ] } },
{ "type": "Feature", "properties": { "fid": 105, "osm_id": "369014607", "code": 5655, "fclass": "helipad", "name": "Davis Heliport" }, "geometry": { "type": "Point", "coordinates": [ -118.5594, 45.7743 ] } },
{ "type": "Feature", "properties": { "fid": 106, "osm_id": "369014670", "code": 5651, "fclass": "airport", "name": "Umpleby Ranch Airstrip" }, "geometry": { "type": "Point", "coordinates": [ -117.9677148, 45.2240235 ] } },
{ "type": "Feature", "properties": { "fid": 107, "osm_id": "369014848", "code": 5651, "fclass": "airport", "name": "Lands End Landing Strip" }, "geometry": { "type": "Point", "coordinates": [ -119.5635951, 44.5929224 ] } },
{ "type": "Feature", "properties": { "fid": 108, "osm_id": "369016873", "code": 5651, "fclass": "airport", "name": "Madras Municipal Airport" }, "geometry": { "type": "Point", "coordinates": [ -121.1521307, 44.6675273 ] } },
{ "type": "Feature", "properties": { "fid": 109, "osm_id": "369016881", "code": 5651, "fclass": "airport", "name": "Wallace Ranch Airstrip" }, "geometry": { "type": "Point", "coordinates": [ -119.2896795, 44.0904267 ] } },
{ "type": "Feature", "properties": { "fid": 110, "osm_id": "369017015", "code": 5651, "fclass": "airport", "name": "Volny Long Creek Airstrip" }, "geometry": { "type": "Point", "coordinates": [ -119.1008465, 44.7589408 ] } },
{ "type": "Feature", "properties": { "fid": 111, "osm_id": "369017016", "code": 5651, "fclass": "airport", "name": "Ellingson Lumber Company Airstrip" }, "geometry": { "type": "Point", "coordinates": [ -118.1883595, 44.4518283 ] } },
{ "type": "Feature", "properties": { "fid": 112, "osm_id": "369017017", "code": 5651, "fclass": "airport", "name": "Enterprise Municipal Airport" }, "geometry": { "type": "Point", "coordinates": [ -117.2657472, 45.4249983 ] } },
{ "type": "Feature", "properties": { "fid": 113, "osm_id": "369017027", "code": 5651, "fclass": "airport", "name": "Flying T Ranch Airstrip" }, "geometry": { "type": "Point", "coordinates": [ -121.3344438, 42.4332027 ] } },
{ "type": "Feature", "properties": { "fid": 114, "osm_id": "369017030", "code": 5651, "fclass": "airport", "name": "Silver Lake Forest Service Strip" }, "geometry": { "type": "Point", "coordinates": [ -121.0943, 43.1111 ] } },
{ "type": "Feature", "properties": { "fid": 115, "osm_id": "369017035", "code": 5651, "fclass": "airport", "name": "Sunriver Airport" }, "geometry": { "type": "Point", "coordinates": [ -121.4536, 43.876 ] } },
{ "type": "Feature", "properties": { "fid": 116, "osm_id": "369017039", "code": 5651, "fclass": "airport", "name": "Powwatka Ridge Airstrip" }, "geometry": { "type": "Point", "coordinates": [ -117.484602, 45.8535111 ] } },
{ "type": "Feature", "properties": { "fid": 117, "osm_id": "369017085", "code": 5651, "fclass": "airport", "name": "Hanel Field" }, "geometry": { "type": "Point", "coordinates": [ -121.5484922, 45.5924898 ] } },
{ "type": "Feature", "properties": { "fid": 118, "osm_id": "369017111", "code": 5651, "fclass": "airport", "name": "Lord Flat USFS Airport" }, "geometry": { "type": "Point", "coordinates": [ -116.617644, 45.6707146 ] } },
{ "type": "Feature", "properties": { "fid": 119, "osm_id": "369017116", "code": 5651, "fclass": "airport", "name": "Lake County-Lakeview Airport" }, "geometry": { "type": "Point", "coordinates": [ -120.4029779, 42.1597551 ] } },
{ "type": "Feature", "properties": { "fid": 120, "osm_id": "369017122", "code": 5651, "fclass": "airport", "name": "Meuret Airstrip" }, "geometry": { "type": "Point", "coordinates": [ -121.2497665, 44.5631746 ] } },
{ "type": "Feature", "properties": { "fid": 121, "osm_id": "369017130", "code": 5651, "fclass": "airport", "name": "Memaloose USFS Airport" }, "geometry": { "type": "Point", "coordinates": [ -116.693606, 45.429877 ] } },
{ "type": "Feature", "properties": { "fid": 122, "osm_id": "369017137", "code": 5651, "fclass": "airport", "name": "Lake Billy Chinook Airport" }, "geometry": { "type": "Point", "coordinates": [ -121.3206, 44.5192 ] } },
{ "type": "Feature", "properties": { "fid": 123, "osm_id": "369017148", "code": 5651, "fclass": "airport", "name": "Gopher Gulch Airstrip" }, "geometry": { "type": "Point", "coordinates": [ -121.335545, 44.1080628 ] } },
{ "type": "Feature", "properties": { "fid": 124, "osm_id": "369017151", "code": 5651, "fclass": "airport", "name": "D M Stevenson Ranch Airstrip" }, "geometry": { "type": "Point", "coordinates": [ -121.272113, 44.0029723 ] } },
{ "type": "Feature", "properties": { "fid": 125, "osm_id": "369017152", "code": 5651, "fclass": "airport", "name": "Crescent Lake State Airport" }, "geometry": { "type": "Point", "coordinates": [ -121.9502575, 43.5324274 ] } },
{ "type": "Feature", "properties": { "fid": 126, "osm_id": "369017153", "code": 5651, "fclass": "airport", "name": "Compressor Station Number 11 Airstrip" }, "geometry": { "type": "Point", "coordinates": [ -121.0414223, 44.4373448 ] } },
{ "type": "Feature", "properties": { "fid": 127, "osm_id": "369017211", "code": 5651, "fclass": "airport", "name": "Collins Landing Strip" }, "geometry": { "type": "Point", "coordinates": [ -119.9761082, 44.5165274 ] } },
{ "type": "Feature", "properties": { "fid": 128, "osm_id": "369017212", "code": 5651, "fclass": "airport", "name": "Chenoweth Airpark" }, "geometry": { "type": "Point", "coordinates": [ -121.281668, 45.610759 ] } },
{ "type": "Feature", "properties": { "fid": 129, "osm_id": "369017262", "code": 5651, "fclass": "airport", "name": "Hawks Valley Airstrip" }, "geometry": { "type": "Point", "coordinates": [ -119.0801943, 42.101281 ] } },
{ "type": "Feature", "properties": { "fid": 130, "osm_id": "369017433", "code": 5651, "fclass": "airport", "name": "Hyde Airstrip" }, "geometry": { "type": "Point", "coordinates": [ -121.0613785, 42.4815388 ] } },
{ "type": "Feature", "properties": { "fid": 131, "osm_id": "369017498", "code": 5651, "fclass": "airport", "name": "Reed Landing Strip (historical)" }, "geometry": { "type": "Point", "coordinates": [ -119.1644689, 43.3339438 ] } },
{ "type": "Feature", "properties": { "fid": 132, "osm_id": "369017506", "code": 5655, "fclass": "helipad", "name": "Helitack Base" }, "geometry": { "type": "Point", "coordinates": [ -116.6940004, 45.4304058 ] } },
{ "type": "Feature", "properties": { "fid": 133, "osm_id": "369017529", "code": 5651, "fclass": "airport", "name": "Goering Ranches Airstrip" }, "geometry": { "type": "Point", "coordinates": [ -120.9467425, 44.0957025 ] } },
{ "type": "Feature", "properties": { "fid": 134, "osm_id": "369017551", "code": 5651, "fclass": "airport", "name": "Big Rock Flat Airstrip" }, "geometry": { "type": "Point", "coordinates": [ -119.5719522, 45.0406977 ] } },
{ "type": "Feature", "properties": { "fid": 135, "osm_id": "369017556", "code": 5651, "fclass": "airport", "name": "Gabel Landing Strip" }, "geometry": { "type": "Point", "coordinates": [ -121.226173, 45.109562 ] } },
{ "type": "Feature", "properties": { "fid": 136, "osm_id": "369017564", "code": 5651, "fclass": "airport", "name": "Mitchell Airstrip" }, "geometry": { "type": "Point", "coordinates": [ -120.1705648, 44.5831912 ] } },
{ "type": "Feature", "properties": { "fid": 137, "osm_id": "369017584", "code": 5651, "fclass": "airport", "name": "Pratt Ranch Airstrip" }, "geometry": { "type": "Point", "coordinates": [ -117.9696605, 45.1054153 ] } },
{ "type": "Feature", "properties": { "fid": 138, "osm_id": "369017849", "code": 5651, "fclass": "airport", "name": "Beaver Marsh Airport" }, "geometry": { "type": "Point", "coordinates": [ -121.805875, 43.132812 ] } },
{ "type": "Feature", "properties": { "fid": 139, "osm_id": "369018097", "code": 5655, "fclass": "helipad", "name": "Rambling Rotors Heliport" }, "geometry": { "type": "Point", "coordinates": [ -118.0343835, 45.3165227 ] } },
{ "type": "Feature", "properties": { "fid": 140, "osm_id": "369018144", "code": 5651, "fclass": "airport", "name": "PUI Airstrip" }, "geometry": { "type": "Point", "coordinates": [ -118.3982825, 45.0609652 ] } },
{ "type": "Feature", "properties": { "fid": 141, "osm_id": "369018145", "code": 5651, "fclass": "airport", "name": "Brewer Airstrip" }, "geometry": { "type": "Point", "coordinates": [ -121.1653182, 44.5234539 ] } },
{ "type": "Feature", "properties": { "fid": 142, "osm_id": "371885852", "code": 5655, "fclass": "helipad", "name": "" }, "geometry": { "type": "Point", "coordinates": [ -122.7738821, 45.4450102 ] } },
{ "type": "Feature", "properties": { "fid": 143, "osm_id": "381894723", "code": 5621, "fclass": "bus_stop", "name": "Kerr & Jefferson Parkway" }, "geometry": { "type": "Point", "coordinates": [ -122.7182216, 45.4311457 ] } },
{ "type": "Feature", "properties": { "fid": 144, "osm_id": "386318481", "code": 5651, "fclass": "airport", "name": "Grants Pass Airport" }, "geometry": { "type": "Point", "coordinates": [ -123.3885181, 42.5101682 ] } },
{ "type": "Feature", "properties": { "fid": 145, "osm_id": "387981379", "code": 5651, "fclass": "airport", "name": "Paisley State Airport" }, "geometry": { "type": "Point", "coordinates": [ -120.5603957, 42.7139854 ] } },
{ "type": "Feature", "properties": { "fid": 146, "osm_id": "387981384", "code": 5655, "fclass": "helipad", "name": "Timberland Shop Heliport" }, "geometry": { "type": "Point", "coordinates": [ -122.63359, 42.2056911 ] } },
{ "type": "Feature", "properties": { "fid": 147, "osm_id": "388487246", "code": 5651, "fclass": "airport", "name": "Condon State Airport" }, "geometry": { "type": "Point", "coordinates": [ -120.168591, 45.2445009 ] } },
{ "type": "Feature", "properties": { "fid": 148, "osm_id": "388694333", "code": 5651, "fclass": "airport", "name": "Wasco State Airport" }, "geometry": { "type": "Point", "coordinates": [ -120.6689623, 45.5893772 ] } },
{ "type": "Feature", "properties": { "fid": 149, "osm_id": "389146164", "code": 5651, "fclass": "airport", "name": "Miller Memorial Airpark" }, "geometry": { "type": "Point", "coordinates": [ -117.2521224, 43.9656295 ] } },
{ "type": "Feature", "properties": { "fid": 150, "osm_id": "389146327", "code": 5651, "fclass": "airport", "name": "Monument Municipal Airport" }, "geometry": { "type": "Point", "coordinates": [ -119.4301675, 44.8332397 ] } },
{ "type": "Feature", "properties": { "fid": 151, "osm_id": "427666772", "code": 5655, "fclass": "helipad", "name": "" }, "geometry": { "type": "Point", "coordinates": [ -120.6732896, 43.2369227 ] } },
{ "type": "Feature", "properties": { "fid": 152, "osm_id": "441268035", "code": 5621, "fclass": "bus_stop", "name": "Northeast Cully & Mason" }, "geometry": { "type": "Point", "coordinates": [ -122.6033983, 45.5526665 ] } },
{ "type": "Feature", "properties": { "fid": 153, "osm_id": "441268690", "code": 5621, "fclass": "bus_stop", "name": "Northeast Cully & Mason" }, "geometry": { "type": "Point", "coordinates": [ -122.6031057, 45.5526547 ] } },
{ "type": "Feature", "properties": { "fid": 154, "osm_id": "442660326", "code": 5622, "fclass": "bus_station", "name": "West Salem Transit Center" }, "geometry": { "type": "Point", "coordinates": [ -123.0485, 44.9511045 ] } },
{ "type": "Feature", "properties": { "fid": 155, "osm_id": "442674706", "code": 5621, "fclass": "bus_stop", "name": "8500 Block Southeast McLoughlin" }, "geometry": { "type": "Point", "coordinates": [ -122.639375, 45.4611306 ] } },
{ "type": "Feature", "properties": { "fid": 156, "osm_id": "442680405", "code": 5621, "fclass": "bus_stop", "name": "Southeast Frontage Road & Ochoco Street" }, "geometry": { "type": "Point", "coordinates": [ -122.6402977, 45.4583709 ] } },
{ "type": "Feature", "properties": { "fid": 157, "osm_id": "443450283", "code": 5621, "fclass": "bus_stop", "name": "Southwest Spring Garden & 14th" }, "geometry": { "type": "Point", "coordinates": [ -122.692873, 45.4635597 ] } },
{ "type": "Feature", "properties": { "fid": 158, "osm_id": "443450446", "code": 5621, "fclass": "bus_stop", "name": "Southwest Spring Garden & 14th" }, "geometry": { "type": "Point", "coordinates": [ -122.6931013, 45.4634448 ] } },
{ "type": "Feature", "properties": { "fid": 159, "osm_id": "443450508", "code": 5621, "fclass": "bus_stop", "name": "Southwest Spring Garden & 17th" }, "geometry": { "type": "Point", "coordinates": [ -122.6954068, 45.463432 ] } },
{ "type": "Feature", "properties": { "fid": 160, "osm_id": "443450732", "code": 5621, "fclass": "bus_stop", "name": "Southwest Spring Garden & 17th" }, "geometry": { "type": "Point", "coordinates": [ -122.6955426, 45.4635721 ] } },
{ "type": "Feature", "properties": { "fid": 161, "osm_id": "443450881", "code": 5621, "fclass": "bus_stop", "name": "Southwest 19th & Spring Garden" }, "geometry": { "type": "Point", "coordinates": [ -122.6972735, 45.4639082 ] } },
{ "type": "Feature", "properties": { "fid": 162, "osm_id": "443450977", "code": 5621, "fclass": "bus_stop", "name": "Southwest 19th & Multnomah" }, "geometry": { "type": "Point", "coordinates": [ -122.697237, 45.4655943 ] } },
{ "type": "Feature", "properties": { "fid": 163, "osm_id": "443451306", "code": 5621, "fclass": "bus_stop", "name": "Southwest 19th & Barbur" }, "geometry": { "type": "Point", "coordinates": [ -122.6974044, 45.4651836 ] } },
{ "type": "Feature", "properties": { "fid": 164, "osm_id": "443453158", "code": 5621, "fclass": "bus_stop", "name": "Southwest Barbur & Evans" }, "geometry": { "type": "Point", "coordinates": [ -122.6956403, 45.4670104 ] } },
{ "type": "Feature", "properties": { "fid": 165, "osm_id": "443453209", "code": 5621, "fclass": "bus_stop", "name": "Southwest Barbur & 13th" }, "geometry": { "type": "Point", "coordinates": [ -122.6925429, 45.468775 ] } },
{ "type": "Feature", "properties": { "fid": 166, "osm_id": "443453472", "code": 5621, "fclass": "bus_stop", "name": "Southwest Barbur & Bertha" }, "geometry": { "type": "Point", "coordinates": [ -122.6896449, 45.4704591 ] } },
{ "type": "Feature", "properties": { "fid": 167, "osm_id": "443453536", "code": 5621, "fclass": "bus_stop", "name": "Southwest Barbur & Bertha" }, "geometry": { "type": "Point", "coordinates": [ -122.6886167, 45.4706336 ] } },
{ "type": "Feature", "properties": { "fid": 168, "osm_id": "444223175", "code": 5621, "fclass": "bus_stop", "name": "Southwest Taylors Ferry & 11th" }, "geometry": { "type": "Point", "coordinates": [ -122.6897773, 45.4630965 ] } },
{ "type": "Feature", "properties": { "fid": 169, "osm_id": "444223215", "code": 5621, "fclass": "bus_stop", "name": "Southwest Taylors Ferry & 10th" }, "geometry": { "type": "Point", "coordinates": [ -122.6884216, 45.4635274 ] } },
{ "type": "Feature", "properties": { "fid": 170, "osm_id": "444223629", "code": 5621, "fclass": "bus_stop", "name": "Southwest Taylors Ferry & 7th" }, "geometry": { "type": "Point", "coordinates": [ -122.6853505, 45.4630791 ] } },
{ "type": "Feature", "properties": { "fid": 171, "osm_id": "444223667", "code": 5621, "fclass": "bus_stop", "name": "Southwest Taylors Ferry & Terwilliger" }, "geometry": { "type": "Point", "coordinates": [ -122.6851632, 45.4629655 ] } },
{ "type": "Feature", "properties": { "fid": 172, "osm_id": "444224004", "code": 5621, "fclass": "bus_stop", "name": "Southwest Terwilliger & Troy" }, "geometry": { "type": "Point", "coordinates": [ -122.684608, 45.467452 ] } },
{ "type": "Feature", "properties": { "fid": 173, "osm_id": "444224903", "code": 5621, "fclass": "bus_stop", "name": "Southwest Terwilliger & 6th" }, "geometry": { "type": "Point", "coordinates": [ -122.684728, 45.467324 ] } },
{ "type": "Feature", "properties": { "fid": 174, "osm_id": "444225361", "code": 5621, "fclass": "bus_stop", "name": "Southwest Barbur & Terwilliger" }, "geometry": { "type": "Point", "coordinates": [ -122.6849557, 45.4709179 ] } },
{ "type": "Feature", "properties": { "fid": 175, "osm_id": "444225656", "code": 5621, "fclass": "bus_stop", "name": "Southwest Barbur & Terwilliger" }, "geometry": { "type": "Point", "coordinates": [ -122.6860754, 45.4712242 ] } },
{ "type": "Feature", "properties": { "fid": 176, "osm_id": "444431682", "code": 5621, "fclass": "bus_stop", "name": "Southwest Taylors Ferry & 10th" }, "geometry": { "type": "Point", "coordinates": [ -122.6887769, 45.4633391 ] } },
{ "type": "Feature", "properties": { "fid": 177, "osm_id": "444580624", "code": 5621, "fclass": "bus_stop", "name": "Southeast Ochoco & McLoughlin" }, "geometry": { "type": "Point", "coordinates": [ -122.6393876, 45.4588034 ] } },
{ "type": "Feature", "properties": { "fid": 178, "osm_id": "444656608", "code": 5621, "fclass": "bus_stop", "name": "Southeast 17th & Tacoma" }, "geometry": { "type": "Point", "coordinates": [ -122.6471256, 45.4644697 ] } },
{ "type": "Feature", "properties": { "fid": 179, "osm_id": "445172416", "code": 5621, "fclass": "bus_stop", "name": "Southwest Spring Garden & 11th" }, "geometry": { "type": "Point", "coordinates": [ -122.6905224, 45.4631833 ] } },
{ "type": "Feature", "properties": { "fid": 180, "osm_id": "445491065", "code": 5621, "fclass": "bus_stop", "name": "Southeast 17th & Ochoco Street" }, "geometry": { "type": "Point", "coordinates": [ -122.647232, 45.458848 ] } },
{ "type": "Feature", "properties": { "fid": 181, "osm_id": "445492278", "code": 5621, "fclass": "bus_stop", "name": "Southeast 17th & Ochoco Street" }, "geometry": { "type": "Point", "coordinates": [ -122.6467791, 45.4584352 ] } },
{ "type": "Feature", "properties": { "fid": 182, "osm_id": "446616506", "code": 5621, "fclass": "bus_stop", "name": "Southwest Terwilliger & 2nd" }, "geometry": { "type": "Point", "coordinates": [ -122.682526, 45.4540495 ] } },
{ "type": "Feature", "properties": { "fid": 183, "osm_id": "450178095", "code": 5621, "fclass": "bus_stop", "name": "Southeast 17th & Clatsop" }, "geometry": { "type": "Point", "coordinates": [ -122.647143, 45.4608837 ] } },
{ "type": "Feature", "properties": { "fid": 184, "osm_id": "450178220", "code": 5621, "fclass": "bus_stop", "name": "Southeast 17th & Umatilla" }, "geometry": { "type": "Point", "coordinates": [ -122.647146, 45.4625316 ] } },
{ "type": "Feature", "properties": { "fid": 185, "osm_id": "450178417", "code": 5621, "fclass": "bus_stop", "name": "Southeast 17th & Marion" }, "geometry": { "type": "Point", "coordinates": [ -122.6469937, 45.4599624 ] } },
{ "type": "Feature", "properties": { "fid": 186, "osm_id": "450942278", "code": 5621, "fclass": "bus_stop", "name": "Southeast Main & Milport" }, "geometry": { "type": "Point", "coordinates": [ -122.6406078, 45.4523096 ] } },
{ "type": "Feature", "properties": { "fid": 187, "osm_id": "450942901", "code": 5621, "fclass": "bus_stop", "name": "10200 Block Southeast Main" }, "geometry": { "type": "Point", "coordinates": [ -122.641826, 45.448545 ] } },
{ "type": "Feature", "properties": { "fid": 188, "osm_id": "452872297", "code": 5602, "fclass": "railway_halt", "name": "" }, "geometry": { "type": "Point", "coordinates": [ -122.6625398, 45.4719644 ] } },
{ "type": "Feature", "properties": { "fid": 189, "osm_id": "454132391", "code": 5621, "fclass": "bus_stop", "name": "Merriman Rd - North of Green Park Dr" }, "geometry": { "type": "Point", "coordinates": [ -122.8930414, 42.362424 ] } },
{ "type": "Feature", "properties": { "fid": 190, "osm_id": "465602478", "code": 5621, "fclass": "bus_stop", "name": "" }, "geometry": { "type": "Point", "coordinates": [ -121.3023874, 44.0680051 ] } },
{ "type": "Feature", "properties": { "fid": 191, "osm_id": "471266878", "code": 5621, "fclass": "bus_stop", "name": "North Vancouver & Stanton" }, "geometry": { "type": "Point", "coordinates": [ -122.6682146, 45.5438539 ] } },
{ "type": "Feature", "properties": { "fid": 192, "osm_id": "471277945", "code": 5621, "fclass": "bus_stop", "name": "Southeast Morrison & 14th" }, "geometry": { "type": "Point", "coordinates": [ -122.6514267, 45.5172996 ] } },
{ "type": "Feature", "properties": { "fid": 193, "osm_id": "471277950", "code": 5621, "fclass": "bus_stop", "name": "Southeast Morrison & 12th" }, "geometry": { "type": "Point", "coordinates": [ -122.6540703, 45.5173117 ] } },
{ "type": "Feature", "properties": { "fid": 194, "osm_id": "475518914", "code": 5621, "fclass": "bus_stop", "name": "Lancaster & Beverly" }, "geometry": { "type": "Point", "coordinates": [ -122.9837298, 44.9613302 ] } },
{ "type": "Feature", "properties": { "fid": 195, "osm_id": "475518915", "code": 5621, "fclass": "bus_stop", "name": "Lancaster & Beverly" }, "geometry": { "type": "Point", "coordinates": [ -122.9834094, 44.9609731 ] } },
{ "type": "Feature", "properties": { "fid": 196, "osm_id": "477126237", "code": 5621, "fclass": "bus_stop", "name": "" }, "geometry": { "type": "Point", "coordinates": [ -121.3021114, 44.0722204 ] } },
{ "type": "Feature", "properties": { "fid": 197, "osm_id": "477913163", "code": 5621, "fclass": "bus_stop", "name": "" }, "geometry": { "type": "Point", "coordinates": [ -121.3163347, 44.0586955 ] } },
{ "type": "Feature", "properties": { "fid": 198, "osm_id": "485493468", "code": 5621, "fclass": "bus_stop", "name": "Northeast Alberta & 9th" }, "geometry": { "type": "Point", "coordinates": [ -122.6564726, 45.5591561 ] } },
{ "type": "Feature", "properties": { "fid": 199, "osm_id": "485493475", "code": 5621, "fclass": "bus_stop", "name": "Northeast Alberta & 15th" }, "geometry": { "type": "Point", "coordinates": [ -122.6499285, 45.5590426 ] } },
{ "type": "Feature", "properties": { "fid": 200, "osm_id": "485493483", "code": 5621, "fclass": "bus_stop", "name": "Northeast 15th & Alberta" }, "geometry": { "type": "Point", "coordinates": [ -122.6498051, 45.5592146 ] } },
{ "type": "Feature", "properties": { "fid": 201, "osm_id": "485493492", "code": 5621, "fclass": "bus_stop", "name": "Northeast 15th & Alberta" }, "geometry": { "type": "Point", "coordinates": [ -122.6496747, 45.5589852 ] } },
{ "type": "Feature", "properties": { "fid": 202, "osm_id": "485493498", "code": 5621, "fclass": "bus_stop", "name": "Northeast Alberta & 15th" }, "geometry": { "type": "Point", "coordinates": [ -122.6495736, 45.5591628 ] } },
{ "type": "Feature", "properties": { "fid": 203, "osm_id": "490528108", "code": 5621, "fclass": "bus_stop", "name": "Northeast Martin Luther King & Ainsworth" }, "geometry": { "type": "Point", "coordinates": [ -122.6612788, 45.5662505 ] } },
{ "type": "Feature", "properties": { "fid": 204, "osm_id": "490528111", "code": 5621, "fclass": "bus_stop", "name": "Northeast Martin Luther King & Alberta" }, "geometry": { "type": "Point", "coordinates": [ -122.6613834, 45.5595773 ] } },
{ "type": "Feature", "properties": { "fid": 205, "osm_id": "491835039", "code": 5621, "fclass": "bus_stop", "name": "North Mississippi & Failing" }, "geometry": { "type": "Point", "coordinates": [ -122.6756449, 45.5505308 ] } },
{ "type": "Feature", "properties": { "fid": 206, "osm_id": "495494169", "code": 5621, "fclass": "bus_stop", "name": "Northeast Martin Luther King & Beech" }, "geometry": { "type": "Point", "coordinates": [ -122.6616922, 45.5496668 ] } },
{ "type": "Feature", "properties": { "fid": 207, "osm_id": "495495440", "code": 5621, "fclass": "bus_stop", "name": "Northeast Martin Luther King & Sacramento" }, "geometry": { "type": "Point", "coordinates": [ -122.6617351, 45.539526 ] } },
{ "type": "Feature", "properties": { "fid": 208, "osm_id": "495803545", "code": 5621, "fclass": "bus_stop", "name": "North Albina & Blandena" }, "geometry": { "type": "Point", "coordinates": [ -122.6748689, 45.55712 ] } },
{ "type": "Feature", "properties": { "fid": 209, "osm_id": "495934169", "code": 5621, "fclass": "bus_stop", "name": "North Albina & Blandena" }, "geometry": { "type": "Point", "coordinates": [ -122.6750364, 45.556642 ] } },
{ "type": "Feature", "properties": { "fid": 210, "osm_id": "498668184", "code": 5621, "fclass": "bus_stop", "name": "Northeast Martin Luther King & Alberta" }, "geometry": { "type": "Point", "coordinates": [ -122.6616359, 45.558816 ] } },
{ "type": "Feature", "properties": { "fid": 211, "osm_id": "502724629", "code": 5622, "fclass": "bus_station", "name": "" }, "geometry": { "type": "Point", "coordinates": [ -123.3467463, 43.2079274 ] } },
{ "type": "Feature", "properties": { "fid": 212, "osm_id": "523474403", "code": 5621, "fclass": "bus_stop", "name": "Southeast Cesar Chavez Boulevard & Gladstone" }, "geometry": { "type": "Point", "coordinates": [ -122.6225466, 45.4937619 ] } },
{ "type": "Feature", "properties": { "fid": 213, "osm_id": "552614079", "code": 5621, "fclass": "bus_stop", "name": "Southeast Main & Beta" }, "geometry": { "type": "Point", "coordinates": [ -122.6386985, 45.4570047 ] } },
{ "type": "Feature", "properties": { "fid": 214, "osm_id": "566884542", "code": 5621, "fclass": "bus_stop", "name": "Lake Oswego Transit Center" }, "geometry": { "type": "Point", "coordinates": [ -122.6681149, 45.4210654 ] } },
{ "type": "Feature", "properties": { "fid": 215, "osm_id": "631428750", "code": 5621, "fclass": "bus_stop", "name": "Greyhound" }, "geometry": { "type": "Point", "coordinates": [ -119.2052878, 45.7655908 ] } },
{ "type": "Feature", "properties": { "fid": 216, "osm_id": "651269434", "code": 5621, "fclass": "bus_stop", "name": "North Rosa Parks Way & Vancouver" }, "geometry": { "type": "Point", "coordinates": [ -122.6691345, 45.5698939 ] } },
{ "type": "Feature", "properties": { "fid": 217, "osm_id": "651269540", "code": 5621, "fclass": "bus_stop", "name": "North Rosa Parks Way & Vancouver" }, "geometry": { "type": "Point", "coordinates": [ -122.6694423, 45.5700473 ] } },
{ "type": "Feature", "properties": { "fid": 218, "osm_id": "661359852", "code": 5621, "fclass": "bus_stop", "name": "Intel Shuttle" }, "geometry": { "type": "Point", "coordinates": [ -122.960051, 45.5438498 ] } },
{ "type": "Feature", "properties": { "fid": 219, "osm_id": "662765028", "code": 5603, "fclass": "tram_stop", "name": "Northwest 10th & Northrup" }, "geometry": { "type": "Point", "coordinates": [ -122.6813959, 45.5312793 ] } },
{ "type": "Feature", "properties": { "fid": 220, "osm_id": "663797564", "code": 5603, "fclass": "tram_stop", "name": "Northwest Lovejoy & 22nd" }, "geometry": { "type": "Point", "coordinates": [ -122.6968508, 45.5298101 ] } },
{ "type": "Feature", "properties": { "fid": 221, "osm_id": "683800249", "code": 5621, "fclass": "bus_stop", "name": "Southeast Stark & 122nd" }, "geometry": { "type": "Point", "coordinates": [ -122.537315, 45.5189643 ] } },
{ "type": "Feature", "properties": { "fid": 222, "osm_id": "683800250", "code": 5621, "fclass": "bus_stop", "name": "Southeast Stark & 119th" }, "geometry": { "type": "Point", "coordinates": [ -122.5405015, 45.5189343 ] } },
{ "type": "Feature", "properties": { "fid": 223, "osm_id": "737996540", "code": 5621, "fclass": "bus_stop", "name": "Northeast Sandy & 64th" }, "geometry": { "type": "Point", "coordinates": [ -122.5972273, 45.545223 ] } },
{ "type": "Feature", "properties": { "fid": 224, "osm_id": "738026381", "code": 5621, "fclass": "bus_stop", "name": "4700 Block Northeast Glisan" }, "geometry": { "type": "Point", "coordinates": [ -122.6137744, 45.5265916 ] } },
{ "type": "Feature", "properties": { "fid": 225, "osm_id": "738032148", "code": 5621, "fclass": "bus_stop", "name": "Northeast 60th & 60th Avenue MAX Station/I-84" }, "geometry": { "type": "Point", "coordinates": [ -122.6021558, 45.529137 ] } },
{ "type": "Feature", "properties": { "fid": 226, "osm_id": "757361854", "code": 5603, "fclass": "tram_stop", "name": "Northwest Lovejoy & 18th" }, "geometry": { "type": "Point", "coordinates": [ -122.6896237, 45.5299421 ] } },
{ "type": "Feature", "properties": { "fid": 227, "osm_id": "757361961", "code": 5603, "fclass": "tram_stop", "name": "Southwest 11th & Clay" }, "geometry": { "type": "Point", "coordinates": [ -122.6859906, 45.515091 ] } },
{ "type": "Feature", "properties": { "fid": 228, "osm_id": "757361978", "code": 5603, "fclass": "tram_stop", "name": "Northwest Lovejoy & 21st" }, "geometry": { "type": "Point", "coordinates": [ -122.6946997, 45.5298501 ] } },
{ "type": "Feature", "properties": { "fid": 229, "osm_id": "757361979", "code": 5603, "fclass": "tram_stop", "name": "Northwest 11th & Glisan" }, "geometry": { "type": "Point", "coordinates": [ -122.68228, 45.5266225 ] } },
{ "type": "Feature", "properties": { "fid": 230, "osm_id": "757361982", "code": 5603, "fclass": "tram_stop", "name": "Northwest 11th & Johnson" }, "geometry": { "type": "Point", "coordinates": [ -122.6823608, 45.5287545 ] } },
{ "type": "Feature", "properties": { "fid": 231, "osm_id": "757361999", "code": 5603, "fclass": "tram_stop", "name": "Southwest 11th & Taylor" }, "geometry": { "type": "Point", "coordinates": [ -122.683838, 45.5190589 ] } },
{ "type": "Feature", "properties": { "fid": 232, "osm_id": "757362007", "code": 5603, "fclass": "tram_stop", "name": "Northwest Lovejoy & 13th" }, "geometry": { "type": "Point", "coordinates": [ -122.6846472, 45.530022 ] } },
{ "type": "Feature", "properties": { "fid": 233, "osm_id": "757362034", "code": 5603, "fclass": "tram_stop", "name": "Northwest 11th & Couch" }, "geometry": { "type": "Point", "coordinates": [ -122.682175, 45.5237922 ] } },
{ "type": "Feature", "properties": { "fid": 234, "osm_id": "794518983", "code": 5621, "fclass": "bus_stop", "name": "Northwest Murray & Milburn" }, "geometry": { "type": "Point", "coordinates": [ -122.8161041, 45.5201152 ] } },
{ "type": "Feature", "properties": { "fid": 235, "osm_id": "799167566", "code": 5621, "fclass": "bus_stop", "name": "Southwest Taylors Ferry & Riverview (2nd)" }, "geometry": { "type": "Point", "coordinates": [ -122.6738493, 45.4662532 ] } },
{ "type": "Feature", "properties": { "fid": 236, "osm_id": "799167570", "code": 5621, "fclass": "bus_stop", "name": "Southwest Taylors Ferry & 2nd" }, "geometry": { "type": "Point", "coordinates": [ -122.6803627, 45.4638544 ] } },
{ "type": "Feature", "properties": { "fid": 237, "osm_id": "801628934", "code": 5621, "fclass": "bus_stop", "name": "Southeast Stark & 169th" }, "geometry": { "type": "Point", "coordinates": [ -122.4887446, 45.5190175 ] } },
{ "type": "Feature", "properties": { "fid": 238, "osm_id": "819689804", "code": 5621, "fclass": "bus_stop", "name": "Southwest Beaverton-Hillsdale & Oleson" }, "geometry": { "type": "Point", "coordinates": [ -122.7484641, 45.4861101 ] } },
{ "type": "Feature", "properties": { "fid": 239, "osm_id": "819690304", "code": 5621, "fclass": "bus_stop", "name": "Southwest Beaverton-Hillsdale & Oleson" }, "geometry": { "type": "Point", "coordinates": [ -122.7479321, 45.4864809 ] } },
{ "type": "Feature", "properties": { "fid": 240, "osm_id": "819693767", "code": 5621, "fclass": "bus_stop", "name": "Southwest Capitol & Sunset" }, "geometry": { "type": "Point", "coordinates": [ -122.692861, 45.4787962 ] } },
{ "type": "Feature", "properties": { "fid": 241, "osm_id": "821471849", "code": 5621, "fclass": "bus_stop", "name": "Southwest Taylors Ferry & 2nd" }, "geometry": { "type": "Point", "coordinates": [ -122.6796222, 45.4640486 ] } },
{ "type": "Feature", "properties": { "fid": 242, "osm_id": "821471852", "code": 5621, "fclass": "bus_stop", "name": "Southwest Taylors Ferry & Riverview" }, "geometry": { "type": "Point", "coordinates": [ -122.6734344, 45.4663855 ] } },
{ "type": "Feature", "properties": { "fid": 243, "osm_id": "828086695", "code": 5621, "fclass": "bus_stop", "name": "Southwest Terwilliger & Cheltenham" }, "geometry": { "type": "Point", "coordinates": [ -122.6832461, 45.4812244 ] } },
{ "type": "Feature", "properties": { "fid": 244, "osm_id": "828086697", "code": 5621, "fclass": "bus_stop", "name": "Southwest Terwilliger & Capitol Highway" }, "geometry": { "type": "Point", "coordinates": [ -122.6870817, 45.48038 ] } },
{ "type": "Feature", "properties": { "fid": 245, "osm_id": "828086698", "code": 5621, "fclass": "bus_stop", "name": "Southwest Terwilliger & Capitol Highway" }, "geometry": { "type": "Point", "coordinates": [ -122.6869878, 45.4800321 ] } },
{ "type": "Feature", "properties": { "fid": 246, "osm_id": "828086699", "code": 5621, "fclass": "bus_stop", "name": "Southwest Terwilliger & Nebraska" }, "geometry": { "type": "Point", "coordinates": [ -122.6842899, 45.4774617 ] } },
{ "type": "Feature", "properties": { "fid": 247, "osm_id": "828086700", "code": 5621, "fclass": "bus_stop", "name": "Southwest Terwilliger & Burlingame Terrace" }, "geometry": { "type": "Point", "coordinates": [ -122.6844469, 45.477208 ] } },
{ "type": "Feature", "properties": { "fid": 248, "osm_id": "828086703", "code": 5621, "fclass": "bus_stop", "name": "Southwest Terwilliger & Ralston" }, "geometry": { "type": "Point", "coordinates": [ -122.683053, 45.4812413 ] } },
{ "type": "Feature", "properties": { "fid": 249, "osm_id": "828089077", "code": 5621, "fclass": "bus_stop", "name": "Southwest Terwilliger & Chestnut" }, "geometry": { "type": "Point", "coordinates": [ -122.6842559, 45.4740457 ] } },
{ "type": "Feature", "properties": { "fid": 250, "osm_id": "828089079", "code": 5621, "fclass": "bus_stop", "name": "Southwest Terwilliger & Caldew" }, "geometry": { "type": "Point", "coordinates": [ -122.6856392, 45.4720043 ] } },
{ "type": "Feature", "properties": { "fid": 251, "osm_id": "828089080", "code": 5621, "fclass": "bus_stop", "name": "Southwest Terwilliger & Caldew" }, "geometry": { "type": "Point", "coordinates": [ -122.6853565, 45.4720216 ] } },
{ "type": "Feature", "properties": { "fid": 252, "osm_id": "828089082", "code": 5621, "fclass": "bus_stop", "name": "Southwest Terwilliger & Chestnut" }, "geometry": { "type": "Point", "coordinates": [ -122.6839877, 45.4741383 ] } },
{ "type": "Feature", "properties": { "fid": 253, "osm_id": "842928922", "code": 5621, "fclass": "bus_stop", "name": "Southeast Harold & 101st" }, "geometry": { "type": "Point", "coordinates": [ -122.559395, 45.4824735 ] } },
{ "type": "Feature", "properties": { "fid": 254, "osm_id": "842928925", "code": 5621, "fclass": "bus_stop", "name": "Southeast Harold & 101st" }, "geometry": { "type": "Point", "coordinates": [ -122.5588908, 45.4826579 ] } },
{ "type": "Feature", "properties": { "fid": 255, "osm_id": "842928933", "code": 5621, "fclass": "bus_stop", "name": "Southeast Harold & 92nd" }, "geometry": { "type": "Point", "coordinates": [ -122.5676077, 45.4828965 ] } },
{ "type": "Feature", "properties": { "fid": 256, "osm_id": "842928942", "code": 5621, "fclass": "bus_stop", "name": "Southeast Harold & 92nd" }, "geometry": { "type": "Point", "coordinates": [ -122.5676077, 45.4827084 ] } },
{ "type": "Feature", "properties": { "fid": 257, "osm_id": "842928948", "code": 5621, "fclass": "bus_stop", "name": "Southeast Ellis & 89th" }, "geometry": { "type": "Point", "coordinates": [ -122.5708239, 45.4823195 ] } },
{ "type": "Feature", "properties": { "fid": 258, "osm_id": "842929126", "code": 5621, "fclass": "bus_stop", "name": "Southeast Ellis & 89th" }, "geometry": { "type": "Point", "coordinates": [ -122.5710839, 45.4821819 ] } },
{ "type": "Feature", "properties": { "fid": 259, "osm_id": "842929208", "code": 5621, "fclass": "bus_stop", "name": "Southeast Ellis & 86th Court" }, "geometry": { "type": "Point", "coordinates": [ -122.5742335, 45.4822165 ] } },
{ "type": "Feature", "properties": { "fid": 260, "osm_id": "842929356", "code": 5621, "fclass": "bus_stop", "name": "Southeast Ellis & 86th" }, "geometry": { "type": "Point", "coordinates": [ -122.5750428, 45.4823098 ] } },
{ "type": "Feature", "properties": { "fid": 261, "osm_id": "842929496", "code": 5621, "fclass": "bus_stop", "name": "Southeast Ellis & Foster" }, "geometry": { "type": "Point", "coordinates": [ -122.5765663, 45.4821894 ] } },
{ "type": "Feature", "properties": { "fid": 262, "osm_id": "842929785", "code": 5621, "fclass": "bus_stop", "name": "Southeast Foster & 82nd" }, "geometry": { "type": "Point", "coordinates": [ -122.5796178, 45.4831812 ] } },
{ "type": "Feature", "properties": { "fid": 263, "osm_id": "842929953", "code": 5621, "fclass": "bus_stop", "name": "Southeast Harold & Foster" }, "geometry": { "type": "Point", "coordinates": [ -122.5798815, 45.4829793 ] } },
{ "type": "Feature", "properties": { "fid": 264, "osm_id": "842930512", "code": 5621, "fclass": "bus_stop", "name": "Southeast Foster & 86th" }, "geometry": { "type": "Point", "coordinates": [ -122.575285, 45.4817946 ] } },
{ "type": "Feature", "properties": { "fid": 265, "osm_id": "842930677", "code": 5621, "fclass": "bus_stop", "name": "Southeast Foster & 86th" }, "geometry": { "type": "Point", "coordinates": [ -122.5743776, 45.4813996 ] } },
{ "type": "Feature", "properties": { "fid": 266, "osm_id": "842930766", "code": 5621, "fclass": "bus_stop", "name": "Southeast Foster & 89th" }, "geometry": { "type": "Point", "coordinates": [ -122.5712341, 45.4805194 ] } },
{ "type": "Feature", "properties": { "fid": 267, "osm_id": "842931129", "code": 5621, "fclass": "bus_stop", "name": "Southeast Foster & 91st" }, "geometry": { "type": "Point", "coordinates": [ -122.5701454, 45.4803534 ] } },
{ "type": "Feature", "properties": { "fid": 268, "osm_id": "842931544", "code": 5621, "fclass": "bus_stop", "name": "Southeast 97th & Foster" }, "geometry": { "type": "Point", "coordinates": [ -122.563402, 45.4782853 ] } },
{ "type": "Feature", "properties": { "fid": 269, "osm_id": "842931859", "code": 5621, "fclass": "bus_stop", "name": "Southeast Foster & 94th" }, "geometry": { "type": "Point", "coordinates": [ -122.567507, 45.4795726 ] } },
{ "type": "Feature", "properties": { "fid": 270, "osm_id": "874908081", "code": 5621, "fclass": "bus_stop", "name": "Southwest Garden Home & 71st" }, "geometry": { "type": "Point", "coordinates": [ -122.7502189, 45.4656395 ] } },
{ "type": "Feature", "properties": { "fid": 271, "osm_id": "902409260", "code": 5621, "fclass": "bus_stop", "name": "Northeast Killingsworth & 60th" }, "geometry": { "type": "Point", "coordinates": [ -122.6006639, 45.5628404 ] } },
{ "type": "Feature", "properties": { "fid": 272, "osm_id": "902409265", "code": 5621, "fclass": "bus_stop", "name": "Northeast Killingsworth & 60th" }, "geometry": { "type": "Point", "coordinates": [ -122.6009924, 45.5626428 ] } },
{ "type": "Feature", "properties": { "fid": 273, "osm_id": "905083814", "code": 5651, "fclass": "airport", "name": "Big Muddy Ranch Airport" }, "geometry": { "type": "Point", "coordinates": [ -120.49808, 44.8274556 ] } },
{ "type": "Feature", "properties": { "fid": 274, "osm_id": "925963310", "code": 5621, "fclass": "bus_stop", "name": "East Burnside & Northeast 28th" }, "geometry": { "type": "Point", "coordinates": [ -122.6380145, 45.5229686 ] } },
{ "type": "Feature", "properties": { "fid": 275, "osm_id": "931521539", "code": 5621, "fclass": "bus_stop", "name": "Northeast Dekum & Durham" }, "geometry": { "type": "Point", "coordinates": [ -122.655822, 45.5718611 ] } },
{ "type": "Feature", "properties": { "fid": 276, "osm_id": "931521832", "code": 5621, "fclass": "bus_stop", "name": "Northeast Dekum & Durham" }, "geometry": { "type": "Point", "coordinates": [ -122.6561975, 45.5717231 ] } },
{ "type": "Feature", "properties": { "fid": 277, "osm_id": "1041996986", "code": 5651, "fclass": "airport", "name": "Peacock Ranch Airport" }, "geometry": { "type": "Point", "coordinates": [ -117.3507541, 45.4328187 ] } },
{ "type": "Feature", "properties": { "fid": 278, "osm_id": "1042002594", "code": 5651, "fclass": "airport", "name": "Skinner Ranch Airport" }, "geometry": { "type": "Point", "coordinates": [ -117.2819977, 42.9513016 ] } },
{ "type": "Feature", "properties": { "fid": 279, "osm_id": "1042002699", "code": 5651, "fclass": "airport", "name": "Aubrey Mountain Airstrip" }, "geometry": { "type": "Point", "coordinates": [ -122.4264919, 43.7410665 ] } },
{ "type": "Feature", "properties": { "fid": 280, "osm_id": "1042003712", "code": 5651, "fclass": "airport", "name": "Mahogany Mtn. Airport" }, "geometry": { "type": "Point", "coordinates": [ -121.0530014, 43.0671005 ] } },
{ "type": "Feature", "properties": { "fid": 281, "osm_id": "1042004875", "code": 5651, "fclass": "airport", "name": "Withrotor Airport" }, "geometry": { "type": "Point", "coordinates": [ -120.3927268, 42.2750368 ] } },
{ "type": "Feature", "properties": { "fid": 282, "osm_id": "1042006972", "code": 5651, "fclass": "airport", "name": "El Rancho Airport" }, "geometry": { "type": "Point", "coordinates": [ -118.6506636, 42.3318099 ] } },
{ "type": "Feature", "properties": { "fid": 283, "osm_id": "1042007045", "code": 5651, "fclass": "airport", "name": "Lockhart Airport" }, "geometry": { "type": "Point", "coordinates": [ -118.2157134, 44.1814242 ] } },
{ "type": "Feature", "properties": { "fid": 284, "osm_id": "1042007921", "code": 5651, "fclass": "airport", "name": "Pine Hollow Airport" }, "geometry": { "type": "Point", "coordinates": [ -121.2939987, 45.2547989 ] } },
{ "type": "Feature", "properties": { "fid": 285, "osm_id": "1042009429", "code": 5651, "fclass": "airport", "name": "Dillon Field Airport" }, "geometry": { "type": "Point", "coordinates": [ -121.791667, 42.122222 ] } },
{ "type": "Feature", "properties": { "fid": 286, "osm_id": "1042009500", "code": 5651, "fclass": "airport", "name": "Murphy Ranch Airport" }, "geometry": { "type": "Point", "coordinates": [ -118.1320038, 43.9574013 ] } },
{ "type": "Feature", "properties": { "fid": 287, "osm_id": "1042010190", "code": 5651, "fclass": "airport", "name": "Shotgun Ranch Airstrip" }, "geometry": { "type": "Point", "coordinates": [ -120.3256443, 44.1322386 ] } },
{ "type": "Feature", "properties": { "fid": 288, "osm_id": "1042010437", "code": 5651, "fclass": "airport", "name": "Rugg Ranches Airport" }, "geometry": { "type": "Point", "coordinates": [ -118.7928115, 45.4736988 ] } },
{ "type": "Feature", "properties": { "fid": 289, "osm_id": "1042010785", "code": 5651, "fclass": "airport", "name": "MC Ranch Airport" }, "geometry": { "type": "Point", "coordinates": [ -119.904998, 42.1649017 ] } },
{ "type": "Feature", "properties": { "fid": 290, "osm_id": "1042014055", "code": 5651, "fclass": "airport", "name": "Antone Ranch Airport" }, "geometry": { "type": "Point", "coordinates": [ -119.8481546, 44.4920087 ] } },
{ "type": "Feature", "properties": { "fid": 291, "osm_id": "1042015969", "code": 5651, "fclass": "airport", "name": "Sky Wagon Ranch Airport" }, "geometry": { "type": "Point", "coordinates": [ -121.531633, 42.130283 ] } },
{ "type": "Feature", "properties": { "fid": 292, "osm_id": "1042016025", "code": 5651, "fclass": "airport", "name": "Tailwheel Airport" }, "geometry": { "type": "Point", "coordinates": [ -120.7971559, 44.2739903 ] } },
{ "type": "Feature", "properties": { "fid": 293, "osm_id": "1042016510", "code": 5651, "fclass": "airport", "name": "Cerny Airport" }, "geometry": { "type": "Point", "coordinates": [ -119.126242, 44.2445 ] } },
{ "type": "Feature", "properties": { "fid": 294, "osm_id": "1042016890", "code": 5651, "fclass": "airport", "name": "Crowley Ranch Airstrip" }, "geometry": { "type": "Point", "coordinates": [ -117.8939972, 43.3078995 ] } },
{ "type": "Feature", "properties": { "fid": 295, "osm_id": "1042017858", "code": 5651, "fclass": "airport", "name": "Wilderness Airport" }, "geometry": { "type": "Point", "coordinates": [ -120.9660034, 42.3642998 ] } },
{ "type": "Feature", "properties": { "fid": 296, "osm_id": "1042018070", "code": 5651, "fclass": "airport", "name": "Tamarack Springs Ranch Airport" }, "geometry": { "type": "Point", "coordinates": [ -117.4720001, 45.5013008 ] } },
{ "type": "Feature", "properties": { "fid": 297, "osm_id": "1042018242", "code": 5651, "fclass": "airport", "name": "Moondance Ranch Airport" }, "geometry": { "type": "Point", "coordinates": [ -121.329002, 42.6517982 ] } },
{ "type": "Feature", "properties": { "fid": 298, "osm_id": "1042018786", "code": 5655, "fclass": "helipad", "name": "Umpqua Riverfront RV Heliport" }, "geometry": { "type": "Point", "coordinates": [ -123.5460639, 43.5283671 ] } },
{ "type": "Feature", "properties": { "fid": 299, "osm_id": "1042018854", "code": 5651, "fclass": "airport", "name": "Cable Creek Ranch Airport" }, "geometry": { "type": "Point", "coordinates": [ -118.818331, 45.099647 ] } },
{ "type": "Feature", "properties": { "fid": 300, "osm_id": "1042018890", "code": 5651, "fclass": "airport", "name": "Bybee Field" }, "geometry": { "type": "Point", "coordinates": [ -116.989964, 43.897828 ] } },
{ "type": "Feature", "properties": { "fid": 301, "osm_id": "1042018891", "code": 5651, "fclass": "airport", "name": "Hi Country No 2 Airport" }, "geometry": { "type": "Point", "coordinates": [ -118.6620026, 44.4351997 ] } },
{ "type": "Feature", "properties": { "fid": 302, "osm_id": "1042019010", "code": 5651, "fclass": "airport", "name": "Lazy F Ranch Airport" }, "geometry": { "type": "Point", "coordinates": [ -117.6699982, 45.6506996 ] } },
{ "type": "Feature", "properties": { "fid": 303, "osm_id": "1042019397", "code": 5651, "fclass": "airport", "name": "Shaniko Ranch Airport" }, "geometry": { "type": "Point", "coordinates": [ -120.7408884, 45.0026944 ] } },
{ "type": "Feature", "properties": { "fid": 304, "osm_id": "1042051196", "code": 5651, "fclass": "airport", "name": "3 Rivers Recreation Area Airport" }, "geometry": { "type": "Point", "coordinates": [ -121.4049433, 44.5571916 ] } },
{ "type": "Feature", "properties": { "fid": 305, "osm_id": "1042051243", "code": 5651, "fclass": "airport", "name": "Table Rock Airport" }, "geometry": { "type": "Point", "coordinates": [ -120.8430023, 43.2114983 ] } },
{ "type": "Feature", "properties": { "fid": 306, "osm_id": "1042051255", "code": 5651, "fclass": "airport", "name": "Cove Side Ranch Port Airport" }, "geometry": { "type": "Point", "coordinates": [ -117.8199997, 45.3335991 ] } },
{ "type": "Feature", "properties": { "fid": 307, "osm_id": "1042051279", "code": 5651, "fclass": "airport", "name": "Wilson Ranch Airport" }, "geometry": { "type": "Point", "coordinates": [ -120.5238152, 44.2124412 ] } },
{ "type": "Feature", "properties": { "fid": 308, "osm_id": "1042051303", "code": 5651, "fclass": "airport", "name": "Sage Ranch Airport" }, "geometry": { "type": "Point", "coordinates": [ -121.3909988, 44.2332001 ] } },
{ "type": "Feature", "properties": { "fid": 309, "osm_id": "1042051339", "code": 5651, "fclass": "airport", "name": "Bombay Farms Airport" }, "geometry": { "type": "Point", "coordinates": [ -121.237999, 44.6501007 ] } },
{ "type": "Feature", "properties": { "fid": 310, "osm_id": "1042051387", "code": 5651, "fclass": "airport", "name": "Longview Ranch Airport" }, "geometry": { "type": "Point", "coordinates": [ -119.654511, 44.6668947 ] } },
{ "type": "Feature", "properties": { "fid": 311, "osm_id": "1042051412", "code": 5651, "fclass": "airport", "name": "Quail Field" }, "geometry": { "type": "Point", "coordinates": [ -118.5909941, 45.6538947 ] } },
{ "type": "Feature", "properties": { "fid": 312, "osm_id": "1042051428", "code": 5651, "fclass": "airport", "name": "Bald Mountain Airport" }, "geometry": { "type": "Point", "coordinates": [ -117.871733, 44.6148241 ] } },
{ "type": "Feature", "properties": { "fid": 313, "osm_id": "1042051446", "code": 5651, "fclass": "airport", "name": "Cottonwood Creek Ranch Airport" }, "geometry": { "type": "Point", "coordinates": [ -117.5739975, 43.8471985 ] } },
{ "type": "Feature", "properties": { "fid": 314, "osm_id": "1042051447", "code": 5651, "fclass": "airport", "name": "Six Springs Ranch Airport" }, "geometry": { "type": "Point", "coordinates": [ -120.9155012, 44.4847068 ] } },
{ "type": "Feature", "properties": { "fid": 315, "osm_id": "1042051449", "code": 5651, "fclass": "airport", "name": "Wildhorse Valley Airport" }, "geometry": { "type": "Point", "coordinates": [ -118.608371, 42.4874488 ] } },
{ "type": "Feature", "properties": { "fid": 316, "osm_id": "1042051452", "code": 5651, "fclass": "airport", "name": "Shaniko Cattle Airport" }, "geometry": { "type": "Point", "coordinates": [ -120.8850021, 44.9600983 ] } },
{ "type": "Feature", "properties": { "fid": 317, "osm_id": "1042053108", "code": 5651, "fclass": "airport", "name": "Kennel Airstrip" }, "geometry": { "type": "Point", "coordinates": [ -121.1649017, 44.0300645 ] } },
{ "type": "Feature", "properties": { "fid": 318, "osm_id": "1042053134", "code": 5651, "fclass": "airport", "name": "Wiley Creek Airport" }, "geometry": { "type": "Point", "coordinates": [ -119.371315, 44.5022923 ] } },
{ "type": "Feature", "properties": { "fid": 319, "osm_id": "1042053142", "code": 5651, "fclass": "airport", "name": "Umpleby Ranch Airport" }, "geometry": { "type": "Point", "coordinates": [ -117.9680023, 45.0573997 ] } },
{ "type": "Feature", "properties": { "fid": 320, "osm_id": "1042053150", "code": 5651, "fclass": "airport", "name": "Oxbow Ranch Airport" }, "geometry": { "type": "Point", "coordinates": [ -118.691001, 44.4118004 ] } },
{ "type": "Feature", "properties": { "fid": 321, "osm_id": "1042053182", "code": 5651, "fclass": "airport", "name": "Whippet Field" }, "geometry": { "type": "Point", "coordinates": [ -121.4327868, 44.3224957 ] } },
{ "type": "Feature", "properties": { "fid": 322, "osm_id": "1042053213", "code": 5651, "fclass": "airport", "name": "Wapinitia Airport" }, "geometry": { "type": "Point", "coordinates": [ -121.2284966, 45.1453683 ] } },
{ "type": "Feature", "properties": { "fid": 323, "osm_id": "1042053236", "code": 5651, "fclass": "airport", "name": "Pine Valley Airport" }, "geometry": { "type": "Point", "coordinates": [ -117.0883884, 44.8597762 ] } },
{ "type": "Feature", "properties": { "fid": 324, "osm_id": "1042053256", "code": 5651, "fclass": "airport", "name": "Seneca Emergency Airstrip" }, "geometry": { "type": "Point", "coordinates": [ -118.9825924, 44.1380257 ] } },
{ "type": "Feature", "properties": { "fid": 325, "osm_id": "1042133820", "code": 5655, "fclass": "helipad", "name": "Winston-Dillard Fire District Station Nr 2 Heliport" }, "geometry": { "type": "Point", "coordinates": [ -123.428001, 43.0984001 ] } },
{ "type": "Feature", "properties": { "fid": 326, "osm_id": "1042135241", "code": 5655, "fclass": "helipad", "name": "La Pine Heliport" }, "geometry": { "type": "Point", "coordinates": [ -121.5075829, 43.6644599 ] } },
{ "type": "Feature", "properties": { "fid": 327, "osm_id": "1042135252", "code": 5655, "fclass": "helipad", "name": "Big Bar Heliport" }, "geometry": { "type": "Point", "coordinates": [ -116.7426361, 45.1238603 ] } },
{ "type": "Feature", "properties": { "fid": 328, "osm_id": "1042142358", "code": 5655, "fclass": "helipad", "name": "Longview Bridge Medical Emergency Heliport" }, "geometry": { "type": "Point", "coordinates": [ -122.9660034, 46.0980988 ] } },
{ "type": "Feature", "properties": { "fid": 329, "osm_id": "1042142362", "code": 5655, "fclass": "helipad", "name": "Washington National Guard - Sinclair Hgts Heliport" }, "geometry": { "type": "Point", "coordinates": [ -122.6819992, 43.5547981 ] } },
{ "type": "Feature", "properties": { "fid": 330, "osm_id": "1042142951", "code": 5655, "fclass": "helipad", "name": "Light Valley Tree Farm Heliport" }, "geometry": { "type": "Point", "coordinates": [ -122.5118492, 42.3580025 ] } },
{ "type": "Feature", "properties": { "fid": 331, "osm_id": "1042143048", "code": 5655, "fclass": "helipad", "name": "Falcon Point Heliport" }, "geometry": { "type": "Point", "coordinates": [ -122.6650009, 45.3364983 ] } },
{ "type": "Feature", "properties": { "fid": 332, "osm_id": "1042143298", "code": 5655, "fclass": "helipad", "name": "Fishback Heliport" }, "geometry": { "type": "Point", "coordinates": [ -123.078905, 45.6031725 ] } },
{ "type": "Feature", "properties": { "fid": 333, "osm_id": "1042147178", "code": 5655, "fclass": "helipad", "name": "Scanlon Heliport" }, "geometry": { "type": "Point", "coordinates": [ -117.4950027, 42.5674019 ] } },
{ "type": "Feature", "properties": { "fid": 334, "osm_id": "1042150782", "code": 5655, "fclass": "helipad", "name": "Pier 126 Heliport" }, "geometry": { "type": "Point", "coordinates": [ -124.094067, 43.974783 ] } },
{ "type": "Feature", "properties": { "fid": 335, "osm_id": "1042150937", "code": 5655, "fclass": "helipad", "name": "Douglas Community Hospital Heliport" }, "geometry": { "type": "Point", "coordinates": [ -123.3570023, 43.2154007 ] } },
{ "type": "Feature", "properties": { "fid": 336, "osm_id": "1042150954", "code": 5655, "fclass": "helipad", "name": "Horseman Heliport" }, "geometry": { "type": "Point", "coordinates": [ -121.3710022, 44.146801 ] } },
{ "type": "Feature", "properties": { "fid": 337, "osm_id": "1042150977", "code": 5655, "fclass": "helipad", "name": "Rainier Heliport" }, "geometry": { "type": "Point", "coordinates": [ -122.987999, 46.103199 ] } },
{ "type": "Feature", "properties": { "fid": 338, "osm_id": "1042152900", "code": 5655, "fclass": "helipad", "name": "Juniper Hills Airport" }, "geometry": { "type": "Point", "coordinates": [ -121.4580002, 42.1242981 ] } },
{ "type": "Feature", "properties": { "fid": 339, "osm_id": "1110654901", "code": 5621, "fclass": "bus_stop", "name": "Southeast Ladd & Division" }, "geometry": { "type": "Point", "coordinates": [ -122.6454165, 45.5049994 ] } },
{ "type": "Feature", "properties": { "fid": 340, "osm_id": "1110654958", "code": 5621, "fclass": "bus_stop", "name": "Southeast Ladd & Division" }, "geometry": { "type": "Point", "coordinates": [ -122.6456006, 45.5053672 ] } },
{ "type": "Feature", "properties": { "fid": 341, "osm_id": "1112546087", "code": 5621, "fclass": "bus_stop", "name": "Southwest Murray & Teal Boulevard" }, "geometry": { "type": "Point", "coordinates": [ -122.8258023, 45.4404345 ] } },
{ "type": "Feature", "properties": { "fid": 342, "osm_id": "1112548982", "code": 5621, "fclass": "bus_stop", "name": "Southwest Murray & Teal Boulevard" }, "geometry": { "type": "Point", "coordinates": [ -122.8261311, 45.441024 ] } },
{ "type": "Feature", "properties": { "fid": 343, "osm_id": "1112549111", "code": 5621, "fclass": "bus_stop", "name": "Southwest Murray & Osprey Drive" }, "geometry": { "type": "Point", "coordinates": [ -122.8258119, 45.4431524 ] } },
{ "type": "Feature", "properties": { "fid": 344, "osm_id": "1154028388", "code": 5621, "fclass": "bus_stop", "name": "Hilyard Station" }, "geometry": { "type": "Point", "coordinates": [ -123.0824725, 44.0476599 ] } },
{ "type": "Feature", "properties": { "fid": 345, "osm_id": "1234326461", "code": 5621, "fclass": "bus_stop", "name": "Northeast Glisan & 30th" }, "geometry": { "type": "Point", "coordinates": [ -122.6343406, 45.5265552 ] } },
{ "type": "Feature", "properties": { "fid": 346, "osm_id": "1234326665", "code": 5621, "fclass": "bus_stop", "name": "Northeast Glisan & 28th" }, "geometry": { "type": "Point", "coordinates": [ -122.6375214, 45.5265107 ] } },
{ "type": "Feature", "properties": { "fid": 347, "osm_id": "1234326666", "code": 5621, "fclass": "bus_stop", "name": "Northeast Glisan & 28th" }, "geometry": { "type": "Point", "coordinates": [ -122.6369736, 45.5263813 ] } },
{ "type": "Feature", "properties": { "fid": 348, "osm_id": "1234326668", "code": 5621, "fclass": "bus_stop", "name": "Northeast Glisan & 30th" }, "geometry": { "type": "Point", "coordinates": [ -122.6342221, 45.526382 ] } },
{ "type": "Feature", "properties": { "fid": 349, "osm_id": "1237749213", "code": 5621, "fclass": "bus_stop", "name": "Northeast Glisan & 32nd" }, "geometry": { "type": "Point", "coordinates": [ -122.631874, 45.5263744 ] } },
{ "type": "Feature", "properties": { "fid": 350, "osm_id": "1237749644", "code": 5621, "fclass": "bus_stop", "name": "Northeast Glisan & 32nd" }, "geometry": { "type": "Point", "coordinates": [ -122.6314745, 45.5265391 ] } },
{ "type": "Feature", "properties": { "fid": 351, "osm_id": "1237754676", "code": 5621, "fclass": "bus_stop", "name": "Northeast Glisan & 24th" }, "geometry": { "type": "Point", "coordinates": [ -122.6410139, 45.5264031 ] } },
{ "type": "Feature", "properties": { "fid": 352, "osm_id": "1237754677", "code": 5621, "fclass": "bus_stop", "name": "Northeast Glisan & 24th" }, "geometry": { "type": "Point", "coordinates": [ -122.6411855, 45.5265797 ] } },
{ "type": "Feature", "properties": { "fid": 353, "osm_id": "1237756028", "code": 5621, "fclass": "bus_stop", "name": "Northeast Sandy & 24th" }, "geometry": { "type": "Point", "coordinates": [ -122.6412365, 45.5276884 ] } },
{ "type": "Feature", "properties": { "fid": 354, "osm_id": "1237756798", "code": 5621, "fclass": "bus_stop", "name": "Northeast Sandy & 24th" }, "geometry": { "type": "Point", "coordinates": [ -122.641089, 45.5275324 ] } },
{ "type": "Feature", "properties": { "fid": 355, "osm_id": "1237757507", "code": 5621, "fclass": "bus_stop", "name": "Northeast Sandy & 26th" }, "geometry": { "type": "Point", "coordinates": [ -122.6399195, 45.5282427 ] } },
{ "type": "Feature", "properties": { "fid": 356, "osm_id": "1237757775", "code": 5621, "fclass": "bus_stop", "name": "Northeast Sandy & Lawrence" }, "geometry": { "type": "Point", "coordinates": [ -122.6389162, 45.5283771 ] } },
{ "type": "Feature", "properties": { "fid": 357, "osm_id": "1237763238", "code": 5621, "fclass": "bus_stop", "name": "Northeast Sandy & 28th" }, "geometry": { "type": "Point", "coordinates": [ -122.6376609, 45.5288559 ] } },
{ "type": "Feature", "properties": { "fid": 358, "osm_id": "1237763240", "code": 5621, "fclass": "bus_stop", "name": "Northeast Sandy & 28th" }, "geometry": { "type": "Point", "coordinates": [ -122.6368509, 45.5293895 ] } },
{ "type": "Feature", "properties": { "fid": 359, "osm_id": "1237767127", "code": 5621, "fclass": "bus_stop", "name": "Northeast Sandy & 31st" }, "geometry": { "type": "Point", "coordinates": [ -122.6332256, 45.5307845 ] } },
{ "type": "Feature", "properties": { "fid": 360, "osm_id": "1237768786", "code": 5621, "fclass": "bus_stop", "name": "Northeast Sandy & 31st" }, "geometry": { "type": "Point", "coordinates": [ -122.632294, 45.5309383 ] } },
{ "type": "Feature", "properties": { "fid": 361, "osm_id": "1237770703", "code": 5621, "fclass": "bus_stop", "name": "Northeast Sandy & 33rd" }, "geometry": { "type": "Point", "coordinates": [ -122.6302792, 45.5317614 ] } },
{ "type": "Feature", "properties": { "fid": 362, "osm_id": "1237770709", "code": 5621, "fclass": "bus_stop", "name": "Northeast Sandy & 33rd" }, "geometry": { "type": "Point", "coordinates": [ -122.63039, 45.5319152 ] } },
{ "type": "Feature", "properties": { "fid": 363, "osm_id": "1237772132", "code": 5621, "fclass": "bus_stop", "name": "Northeast Sandy & 35th" }, "geometry": { "type": "Point", "coordinates": [ -122.628473, 45.5327013 ] } },
{ "type": "Feature", "properties": { "fid": 364, "osm_id": "1237772489", "code": 5621, "fclass": "bus_stop", "name": "Northeast Sandy & Imperial" }, "geometry": { "type": "Point", "coordinates": [ -122.6278027, 45.5327558 ] } },
{ "type": "Feature", "properties": { "fid": 365, "osm_id": "1237782097", "code": 5621, "fclass": "bus_stop", "name": "Northeast Glisan & Cesar Chavez Boulevard" }, "geometry": { "type": "Point", "coordinates": [ -122.6229465, 45.526045 ] } },
{ "type": "Feature", "properties": { "fid": 366, "osm_id": "1237782106", "code": 5621, "fclass": "bus_stop", "name": "Northeast Glisan & Laddington" }, "geometry": { "type": "Point", "coordinates": [ -122.6248721, 45.5265291 ] } },
{ "type": "Feature", "properties": { "fid": 367, "osm_id": "1237782108", "code": 5621, "fclass": "bus_stop", "name": "Northeast Glisan & Laddington" }, "geometry": { "type": "Point", "coordinates": [ -122.6252216, 45.5263594 ] } },
{ "type": "Feature", "properties": { "fid": 368, "osm_id": "1237782110", "code": 5621, "fclass": "bus_stop", "name": "Northeast Cesar Chavez Boulevard & Glisan" }, "geometry": { "type": "Point", "coordinates": [ -122.6224538, 45.5264682 ] } },
{ "type": "Feature", "properties": { "fid": 369, "osm_id": "1237782113", "code": 5621, "fclass": "bus_stop", "name": "Northeast Cesar Chavez Boulevard & Glisan" }, "geometry": { "type": "Point", "coordinates": [ -122.6235406, 45.5263921 ] } },
{ "type": "Feature", "properties": { "fid": 370, "osm_id": "1237782116", "code": 5621, "fclass": "bus_stop", "name": "Northeast Glisan & Cesar Chavez Boulevard" }, "geometry": { "type": "Point", "coordinates": [ -122.6230531, 45.5268163 ] } },
{ "type": "Feature", "properties": { "fid": 371, "osm_id": "1237783561", "code": 5621, "fclass": "bus_stop", "name": "Northeast Glisan & Floral" }, "geometry": { "type": "Point", "coordinates": [ -122.6292765, 45.5265337 ] } },
{ "type": "Feature", "properties": { "fid": 372, "osm_id": "1237783564", "code": 5621, "fclass": "bus_stop", "name": "Northeast Glisan & Laurelhurst" }, "geometry": { "type": "Point", "coordinates": [ -122.6272845, 45.5263798 ] } },
{ "type": "Feature", "properties": { "fid": 373, "osm_id": "1269859126", "code": 5621, "fclass": "bus_stop", "name": "Tualatin Park & Ride" }, "geometry": { "type": "Point", "coordinates": [ -122.748762, 45.3947435 ] } },
{ "type": "Feature", "properties": { "fid": 374, "osm_id": "1291171331", "code": 5621, "fclass": "bus_stop", "name": "Free Shuttle Stop" }, "geometry": { "type": "Point", "coordinates": [ -122.7097441, 45.5141637 ] } },
{ "type": "Feature", "properties": { "fid": 375, "osm_id": "1307632304", "code": 5621, "fclass": "bus_stop", "name": "Southeast Foster & 88th" }, "geometry": { "type": "Point", "coordinates": [ -122.5724004, 45.4810508 ] } },
{ "type": "Feature", "properties": { "fid": 376, "osm_id": "1307632315", "code": 5621, "fclass": "bus_stop", "name": "Southeast Foster & 82nd" }, "geometry": { "type": "Point", "coordinates": [ -122.5793982, 45.4828806 ] } },
{ "type": "Feature", "properties": { "fid": 377, "osm_id": "1307632333", "code": 5621, "fclass": "bus_stop", "name": "Southeast 82nd & Foster" }, "geometry": { "type": "Point", "coordinates": [ -122.5788188, 45.483172 ] } },
{ "type": "Feature", "properties": { "fid": 378, "osm_id": "1318244618", "code": 5621, "fclass": "bus_stop", "name": "Southwest Lombard & Broadway" }, "geometry": { "type": "Point", "coordinates": [ -122.8012804, 45.4882319 ] } },
{ "type": "Feature", "properties": { "fid": 379, "osm_id": "1318258458", "code": 5621, "fclass": "bus_stop", "name": "Southwest Beaverton-Hillsdale & Griffith" }, "geometry": { "type": "Point", "coordinates": [ -122.7971332, 45.4864243 ] } },
{ "type": "Feature", "properties": { "fid": 380, "osm_id": "1318267734", "code": 5621, "fclass": "bus_stop", "name": "Southwest Beaverton-Hillsdale & 110th" }, "geometry": { "type": "Point", "coordinates": [ -122.7903378, 45.4864328 ] } },
{ "type": "Feature", "properties": { "fid": 381, "osm_id": "1318272797", "code": 5621, "fclass": "bus_stop", "name": "Southwest Beaverton-Hillsdale & 107th" }, "geometry": { "type": "Point", "coordinates": [ -122.7868521, 45.4864142 ] } },
{ "type": "Feature", "properties": { "fid": 382, "osm_id": "1318282376", "code": 5621, "fclass": "bus_stop", "name": "Southwest Beaverton-Hillsdale & 99th" }, "geometry": { "type": "Point", "coordinates": [ -122.7785812, 45.4864329 ] } },
{ "type": "Feature", "properties": { "fid": 383, "osm_id": "1318285486", "code": 5621, "fclass": "bus_stop", "name": "Southwest Beaverton-Hillsdale & Jamieson" }, "geometry": { "type": "Point", "coordinates": [ -122.7742142, 45.4863778 ] } },
{ "type": "Feature", "properties": { "fid": 384, "osm_id": "1318285589", "code": 5621, "fclass": "bus_stop", "name": "Southwest Beaverton-Hillsdale & 91st" }, "geometry": { "type": "Point", "coordinates": [ -122.7712034, 45.486326 ] } },
{ "type": "Feature", "properties": { "fid": 385, "osm_id": "1319642932", "code": 5603, "fclass": "tram_stop", "name": "Southwest Market & 5th" }, "geometry": { "type": "Point", "coordinates": [ -122.6811008, 45.5129127 ] } },
{ "type": "Feature", "properties": { "fid": 386, "osm_id": "1321040831", "code": 5603, "fclass": "tram_stop", "name": "Northwest Northrup & 12th" }, "geometry": { "type": "Point", "coordinates": [ -122.6833071, 45.5315127 ] } },
{ "type": "Feature", "properties": { "fid": 387, "osm_id": "1322768353", "code": 5603, "fclass": "tram_stop", "name": "Southwest Harrison Street" }, "geometry": { "type": "Point", "coordinates": [ -122.6766055, 45.5087955 ] } },
{ "type": "Feature", "properties": { "fid": 388, "osm_id": "1322768921", "code": 5603, "fclass": "tram_stop", "name": "Southwest Harrison Street" }, "geometry": { "type": "Point", "coordinates": [ -122.6764987, 45.5089518 ] } },
{ "type": "Feature", "properties": { "fid": 389, "osm_id": "1323178226", "code": 5621, "fclass": "bus_stop", "name": "Southwest Barbur & 26th Way" }, "geometry": { "type": "Point", "coordinates": [ -122.7054106, 45.4610777 ] } },
{ "type": "Feature", "properties": { "fid": 390, "osm_id": "1335362303", "code": 5661, "fclass": "ferry_terminal", "name": "" }, "geometry": { "type": "Point", "coordinates": [ -121.1119777, 45.0387444 ] } },
{ "type": "Feature", "properties": { "fid": 391, "osm_id": "1335362364", "code": 5661, "fclass": "ferry_terminal", "name": "" }, "geometry": { "type": "Point", "coordinates": [ -121.1122218, 45.0384128 ] } },
{ "type": "Feature", "properties": { "fid": 392, "osm_id": "1341199387", "code": 5621, "fclass": "bus_stop", "name": "Southwest Beaverton-Hillsdale & 18th Drive" }, "geometry": { "type": "Point", "coordinates": [ -122.6974065, 45.4781856 ] } },
{ "type": "Feature", "properties": { "fid": 393, "osm_id": "1360131340", "code": 5603, "fclass": "tram_stop", "name": "Southwest Mill & Park" }, "geometry": { "type": "Point", "coordinates": [ -122.6845646, 45.5130257 ] } },
{ "type": "Feature", "properties": { "fid": 394, "osm_id": "1361549327", "code": 5621, "fclass": "bus_stop", "name": "Southwest Beaverton-Hillsdale & Dosch" }, "geometry": { "type": "Point", "coordinates": [ -122.7075371, 45.4816407 ] } },
{ "type": "Feature", "properties": { "fid": 395, "osm_id": "1361549530", "code": 5621, "fclass": "bus_stop", "name": "Southwest Beaverton-Hillsdale & 35th" }, "geometry": { "type": "Point", "coordinates": [ -122.712665, 45.4829003 ] } },
{ "type": "Feature", "properties": { "fid": 396, "osm_id": "1361550643", "code": 5621, "fclass": "bus_stop", "name": "Southwest Beaverton-Hillsdale & 45th" }, "geometry": { "type": "Point", "coordinates": [ -122.7230627, 45.4858594 ] } },
{ "type": "Feature", "properties": { "fid": 397, "osm_id": "1361551102", "code": 5621, "fclass": "bus_stop", "name": "Southwest Beaverton-Hillsdale & 50th" }, "geometry": { "type": "Point", "coordinates": [ -122.7285761, 45.4871316 ] } },
{ "type": "Feature", "properties": { "fid": 398, "osm_id": "1361551617", "code": 5621, "fclass": "bus_stop", "name": "Southwest Beaverton-Hillsdale & Shattuck" }, "geometry": { "type": "Point", "coordinates": [ -122.7319784, 45.4871797 ] } },
{ "type": "Feature", "properties": { "fid": 399, "osm_id": "1361552138", "code": 5621, "fclass": "bus_stop", "name": "Southwest Beaverton-Hillsdale & 56th" }, "geometry": { "type": "Point", "coordinates": [ -122.7352497, 45.4871567 ] } },
{ "type": "Feature", "properties": { "fid": 400, "osm_id": "1361553434", "code": 5621, "fclass": "bus_stop", "name": "6100 Block Southwest Beaverton-Hillsdale" }, "geometry": { "type": "Point", "coordinates": [ -122.7402808, 45.4871829 ] } },
{ "type": "Feature", "properties": { "fid": 401, "osm_id": "1361556796", "code": 5621, "fclass": "bus_stop", "name": "Southwest Scholls Ferry & Beaverton-Hillsdale Highway" }, "geometry": { "type": "Point", "coordinates": [ -122.7503202, 45.4856347 ] } },
{ "type": "Feature", "properties": { "fid": 402, "osm_id": "1372080264", "code": 5621, "fclass": "bus_stop", "name": "" }, "geometry": { "type": "Point", "coordinates": [ -123.126024, 44.091262 ] } },
{ "type": "Feature", "properties": { "fid": 403, "osm_id": "1377296160", "code": 5621, "fclass": "bus_stop", "name": "" }, "geometry": { "type": "Point", "coordinates": [ -123.116996, 44.0403017 ] } },
{ "type": "Feature", "properties": { "fid": 404, "osm_id": "1385272298", "code": 5621, "fclass": "bus_stop", "name": "50 Block Northeast Gertz Road" }, "geometry": { "type": "Point", "coordinates": [ -122.6649722, 45.5907559 ] } },
{ "type": "Feature", "properties": { "fid": 405, "osm_id": "1400506514", "code": 5603, "fclass": "tram_stop", "name": "Northeast 7th & Holladay" }, "geometry": { "type": "Point", "coordinates": [ -122.658664, 45.5306946 ] } },
{ "type": "Feature", "properties": { "fid": 406, "osm_id": "1400506589", "code": 5603, "fclass": "tram_stop", "name": "North Broadway & Ross" }, "geometry": { "type": "Point", "coordinates": [ -122.6695239, 45.5344717 ] } },
{ "type": "Feature", "properties": { "fid": 407, "osm_id": "1410412542", "code": 5603, "fclass": "tram_stop", "name": "Northeast Martin Luther King & East Burnside" }, "geometry": { "type": "Point", "coordinates": [ -122.6618203, 45.5233663 ] } },
{ "type": "Feature", "properties": { "fid": 408, "osm_id": "1454263123", "code": 5621, "fclass": "bus_stop", "name": "Southwest Pacific Highway & Beef Bend" }, "geometry": { "type": "Point", "coordinates": [ -122.7940841, 45.4110658 ] } },
{ "type": "Feature", "properties": { "fid": 409, "osm_id": "1490941684", "code": 5603, "fclass": "tram_stop", "name": "South Moody & Meade" }, "geometry": { "type": "Point", "coordinates": [ -122.6727539, 45.5032588 ] } },
{ "type": "Feature", "properties": { "fid": 410, "osm_id": "1491831374", "code": 5603, "fclass": "tram_stop", "name": "Bancroft Street" }, "geometry": { "type": "Point", "coordinates": [ -122.6720978, 45.4929924 ] } },
{ "type": "Feature", "properties": { "fid": 411, "osm_id": "1491831375", "code": 5603, "fclass": "tram_stop", "name": "Willamette Shore Trolley Lake Oswego Station" }, "geometry": { "type": "Point", "coordinates": [ -122.6627274, 45.4187834 ] } },
{ "type": "Feature", "properties": { "fid": 412, "osm_id": "1525729024", "code": 5621, "fclass": "bus_stop", "name": "Southwest 6th & West Burnside" }, "geometry": { "type": "Point", "coordinates": [ -122.6764113, 45.5228839 ] } },
{ "type": "Feature", "properties": { "fid": 413, "osm_id": "1525729030", "code": 5621, "fclass": "bus_stop", "name": "Southwest Broadway & West Burnside" }, "geometry": { "type": "Point", "coordinates": [ -122.6772316, 45.5228974 ] } },
{ "type": "Feature", "properties": { "fid": 414, "osm_id": "1525729055", "code": 5621, "fclass": "bus_stop", "name": "West Burnside & Southwest 6th" }, "geometry": { "type": "Point", "coordinates": [ -122.6768582, 45.5229435 ] } },
{ "type": "Feature", "properties": { "fid": 415, "osm_id": "1525737694", "code": 5621, "fclass": "bus_stop", "name": "Northwest Naito Parkway & Couch" }, "geometry": { "type": "Point", "coordinates": [ -122.6704035, 45.5235988 ] } },
{ "type": "Feature", "properties": { "fid": 416, "osm_id": "1525737720", "code": 5621, "fclass": "bus_stop", "name": "Southwest 5th & Pine" }, "geometry": { "type": "Point", "coordinates": [ -122.6758511, 45.5222472 ] } },
{ "type": "Feature", "properties": { "fid": 417, "osm_id": "1525737740", "code": 5621, "fclass": "bus_stop", "name": "Southwest Oak & 6th" }, "geometry": { "type": "Point", "coordinates": [ -122.6769647, 45.5217476 ] } },
{ "type": "Feature", "properties": { "fid": 418, "osm_id": "1525737747", "code": 5621, "fclass": "bus_stop", "name": "West Burnside & Burnside Bridge" }, "geometry": { "type": "Point", "coordinates": [ -122.6712143, 45.523258 ] } },
{ "type": "Feature", "properties": { "fid": 419, "osm_id": "1525737760", "code": 5621, "fclass": "bus_stop", "name": "West Burnside & Northwest 5th" }, "geometry": { "type": "Point", "coordinates": [ -122.6759091, 45.5231817 ] } },
{ "type": "Feature", "properties": { "fid": 420, "osm_id": "1525737767", "code": 5621, "fclass": "bus_stop", "name": "West Burnside & Southwest 2nd" }, "geometry": { "type": "Point", "coordinates": [ -122.6725292, 45.5230087 ] } },
{ "type": "Feature", "properties": { "fid": 421, "osm_id": "1525737788", "code": 5621, "fclass": "bus_stop", "name": "West Burnside & Southwest 5th" }, "geometry": { "type": "Point", "coordinates": [ -122.6755929, 45.5229771 ] } },
{ "type": "Feature", "properties": { "fid": 422, "osm_id": "1525749959", "code": 5621, "fclass": "bus_stop", "name": "Southwest 5th & Harvey Milk" }, "geometry": { "type": "Point", "coordinates": [ -122.6765086, 45.5209215 ] } },
{ "type": "Feature", "properties": { "fid": 423, "osm_id": "1525749970", "code": 5621, "fclass": "bus_stop", "name": "Southwest 5th & Washington" }, "geometry": { "type": "Point", "coordinates": [ -122.6768627, 45.5202661 ] } },
{ "type": "Feature", "properties": { "fid": 424, "osm_id": "1525749987", "code": 5621, "fclass": "bus_stop", "name": "Southwest 6th & Harvey Milk" }, "geometry": { "type": "Point", "coordinates": [ -122.6775476, 45.5209414 ] } },
{ "type": "Feature", "properties": { "fid": 425, "osm_id": "1525750003", "code": 5621, "fclass": "bus_stop", "name": "Southwest 6th & Washington" }, "geometry": { "type": "Point", "coordinates": [ -122.677911, 45.5202718 ] } },
{ "type": "Feature", "properties": { "fid": 426, "osm_id": "1525750007", "code": 5621, "fclass": "bus_stop", "name": "Southwest 6th & Yamhill" }, "geometry": { "type": "Point", "coordinates": [ -122.6789993, 45.5182076 ] } },
{ "type": "Feature", "properties": { "fid": 427, "osm_id": "1525750031", "code": 5621, "fclass": "bus_stop", "name": "Southwest Washington & 5th" }, "geometry": { "type": "Point", "coordinates": [ -122.6766054, 45.5201324 ] } },
{ "type": "Feature", "properties": { "fid": 428, "osm_id": "1525760020", "code": 5621, "fclass": "bus_stop", "name": "Southwest 5th & Alder" }, "geometry": { "type": "Point", "coordinates": [ -122.677239, 45.5195956 ] } },
{ "type": "Feature", "properties": { "fid": 429, "osm_id": "1525760027", "code": 5621, "fclass": "bus_stop", "name": "Southwest 5th & Clay" }, "geometry": { "type": "Point", "coordinates": [ -122.6804875, 45.5136172 ] } },
{ "type": "Feature", "properties": { "fid": 430, "osm_id": "1525760050", "code": 5621, "fclass": "bus_stop", "name": "Southwest 5th & Columbia" }, "geometry": { "type": "Point", "coordinates": [ -122.680129, 45.5142919 ] } },
{ "type": "Feature", "properties": { "fid": 431, "osm_id": "1525760055", "code": 5621, "fclass": "bus_stop", "name": "Southwest 5th & Madison" }, "geometry": { "type": "Point", "coordinates": [ -122.6794124, 45.5155527 ] } },
{ "type": "Feature", "properties": { "fid": 432, "osm_id": "1525760082", "code": 5621, "fclass": "bus_stop", "name": "Southwest 5th & Main" }, "geometry": { "type": "Point", "coordinates": [ -122.6790214, 45.516267 ] } },
{ "type": "Feature", "properties": { "fid": 433, "osm_id": "1525760094", "code": 5621, "fclass": "bus_stop", "name": "Southwest 5th & Morrison" }, "geometry": { "type": "Point", "coordinates": [ -122.6775712, 45.5189359 ] } },
{ "type": "Feature", "properties": { "fid": 434, "osm_id": "1525760109", "code": 5621, "fclass": "bus_stop", "name": "Southwest 5th & Salmon" }, "geometry": { "type": "Point", "coordinates": [ -122.6786546, 45.5169394 ] } },
{ "type": "Feature", "properties": { "fid": 435, "osm_id": "1525760122", "code": 5621, "fclass": "bus_stop", "name": "Southwest 5th & Taylor" }, "geometry": { "type": "Point", "coordinates": [ -122.6783301, 45.5176131 ] } },
{ "type": "Feature", "properties": { "fid": 436, "osm_id": "1525760141", "code": 5621, "fclass": "bus_stop", "name": "Southwest 6th & Alder" }, "geometry": { "type": "Point", "coordinates": [ -122.6782266, 45.5196429 ] } },
{ "type": "Feature", "properties": { "fid": 437, "osm_id": "1525760145", "code": 5621, "fclass": "bus_stop", "name": "Southwest 6th & Clay" }, "geometry": { "type": "Point", "coordinates": [ -122.681465, 45.5136038 ] } },
{ "type": "Feature", "properties": { "fid": 438, "osm_id": "1525760169", "code": 5621, "fclass": "bus_stop", "name": "Southwest 6th & Columbia" }, "geometry": { "type": "Point", "coordinates": [ -122.681111, 45.5142706 ] } },
{ "type": "Feature", "properties": { "fid": 439, "osm_id": "1525760176", "code": 5621, "fclass": "bus_stop", "name": "Southwest 6th & Jefferson" }, "geometry": { "type": "Point", "coordinates": [ -122.6807614, 45.5148698 ] } },
{ "type": "Feature", "properties": { "fid": 440, "osm_id": "1525760198", "code": 5621, "fclass": "bus_stop", "name": "Southwest 6th & Main" }, "geometry": { "type": "Point", "coordinates": [ -122.6800591, 45.516279 ] } },
{ "type": "Feature", "properties": { "fid": 441, "osm_id": "1525760206", "code": 5621, "fclass": "bus_stop", "name": "Southwest 6th & Salmon" }, "geometry": { "type": "Point", "coordinates": [ -122.6797002, 45.5169412 ] } },
{ "type": "Feature", "properties": { "fid": 442, "osm_id": "1525760223", "code": 5621, "fclass": "bus_stop", "name": "Southwest 6th & Taylor" }, "geometry": { "type": "Point", "coordinates": [ -122.6793558, 45.5176008 ] } },
{ "type": "Feature", "properties": { "fid": 443, "osm_id": "1525760235", "code": 5621, "fclass": "bus_stop", "name": "Southwest Columbia between 5th & 4th" },